{"type":"FeatureCollection", "features": [
{"type":"Feature","geometry":{"type":"Point","coordinates":[-75.5854637014473,6.203398529489464]},"properties":{"OBJECTID_1":606,"OBJECTID":800,"NOMBRE":"BANCO DE OCCIDENTE","DIRECCION":"CL 6SUR   51 50","ANEXO_DIR_":"","BARRIO":"GUAYABAL","MUNICIPIO":"MEDELLIN","TELEFONO":"3612844-3612845","CATEGORIA":"BANCOS Y CORPORACIONES"}},
{"type":"Feature","geometry":{"type":"Point","coordinates":[-75.56999113900824,6.234016691225147]},"properties":{"OBJECTID_1":607,"OBJECTID":801,"NOMBRE":"BANCO DE OCCIDENTE","DIRECCION":"KR 43A   33 14","ANEXO_DIR_":"OFC. SANDIEGO","BARRIO":"","MUNICIPIO":"MEDELLIN","TELEFONO":"3815252-2325094","CATEGORIA":"BANCOS Y CORPORACIONES"}},
{"type":"Feature","geometry":{"type":"Point","coordinates":[-75.57244128648453,6.200782060618203]},"properties":{"OBJECTID_1":608,"OBJECTID":802,"NOMBRE":"BANCO DE OCCIDENTE","DIRECCION":"KR 43A   3SUR 10","ANEXO_DIR_":"","BARRIO":"EL POBLADO","MUNICIPIO":"MEDELLIN","TELEFONO":"3214099-3214254","CATEGORIA":"BANCOS Y CORPORACIONES"}},
{"type":"Feature","geometry":{"type":"Point","coordinates":[-75.56716795345056,6.248782242266546]},"properties":{"OBJECTID_1":609,"OBJECTID":803,"NOMBRE":"BANCO DE OCCIDENTE","DIRECCION":"KR 49   49 59","ANEXO_DIR_":"JUNIN","BARRIO":"","MUNICIPIO":"MEDELLIN","TELEFONO":"2513300-5719134","CATEGORIA":"BANCOS Y CORPORACIONES"}},
{"type":"Feature","geometry":{"type":"Point","coordinates":[-75.57043974356435,6.243095822403901]},"properties":{"OBJECTID_1":610,"OBJECTID":804,"NOMBRE":"BANCO DE OCCIDENTE","DIRECCION":"KR 50   42 104","ANEXO_DIR_":"PALACE","BARRIO":"","MUNICIPIO":"MEDELLIN","TELEFONO":"2326060-2323388","CATEGORIA":"BANCOS Y CORPORACIONES"}},
{"type":"Feature","geometry":{"type":"Point","coordinates":[-75.56590259364269,6.253531103790654]},"properties":{"OBJECTID_1":611,"OBJECTID":805,"NOMBRE":"BANCO DE OCCIDENTE","DIRECCION":"KR 50   54 78","ANEXO_DIR_":"OFC. NUTIBARA","BARRIO":"","MUNICIPIO":"MEDELLIN","TELEFONO":"5131418-5134807","CATEGORIA":"BANCOS Y CORPORACIONES"}},
{"type":"Feature","geometry":{"type":"Point","coordinates":[-75.5732560529458,6.249386042409564]},"properties":{"OBJECTID_1":612,"OBJECTID":806,"NOMBRE":"BANCO DE OCCIDENTE","DIRECCION":"KR 55   46 77","ANEXO_DIR_":"","BARRIO":"GUAYAQUIL","MUNICIPIO":"MEDELLIN","TELEFONO":"5129310-5129313","CATEGORIA":"BANCOS Y CORPORACIONES"}},
{"type":"Feature","geometry":{"type":"Point","coordinates":[-75.58923333367778,6.246900326630021]},"properties":{"OBJECTID_1":613,"OBJECTID":807,"NOMBRE":"BANCO DE OCCIDENTE","DIRECCION":"KR 70   4 25","ANEXO_DIR_":"","BARRIO":"LAURELES","MUNICIPIO":"MEDELLIN","TELEFONO":"4131816-4135249","CATEGORIA":"BANCOS Y CORPORACIONES"}},
{"type":"Feature","geometry":{"type":"Point","coordinates":[-75.59707041172179,6.243160665822985]},"properties":{"OBJECTID_1":614,"OBJECTID":808,"NOMBRE":"BANCO DE OCCIDENTE","DIRECCION":"CC    76 08","ANEXO_DIR_":"","BARRIO":"LAURELES","MUNICIPIO":"MEDELLIN","TELEFONO":"4116040-4116611","CATEGORIA":"BANCOS Y CORPORACIONES"}},
{"type":"Feature","geometry":{"type":"Point","coordinates":[-75.57423068386068,6.252748308388993]},"properties":{"OBJECTID_1":615,"OBJECTID":809,"NOMBRE":"BANCO DE OCCIDENTE","DIRECCION":"CL 50   56B 60","ANEXO_DIR_":"OFC. MAYORISTA","BARRIO":"","MUNICIPIO":"MEDELLIN","TELEFONO":"5140652-5126933","CATEGORIA":"BANCOS Y CORPORACIONES"}},
{"type":"Feature","geometry":{"type":"Point","coordinates":[-75.58074115341975,6.256022175829941]},"properties":{"OBJECTID_1":616,"OBJECTID":810,"NOMBRE":"BANCO DE OCCIDENTE","DIRECCION":"CL 50   64C 08","ANEXO_DIR_":"","BARRIO":"LOS SAUCES","MUNICIPIO":"MEDELLIN","TELEFONO":"2305018-2304330","CATEGORIA":"BANCOS Y CORPORACIONES"}},
{"type":"Feature","geometry":{"type":"Point","coordinates":[-75.57362246703272,6.200635143484629]},"properties":{"OBJECTID_1":617,"OBJECTID":812,"NOMBRE":"BANCO DEL PACIFICO","DIRECCION":"CL 4SUR   43AA 30","ANEXO_DIR_":"L-101","BARRIO":"","MUNICIPIO":"MEDELLIN","TELEFONO":"3111600","CATEGORIA":"BANCOS Y CORPORACIONES"}},
{"type":"Feature","geometry":{"type":"Point","coordinates":[-75.57212408335485,6.201498731582233]},"properties":{"OBJECTID_1":618,"OBJECTID":813,"NOMBRE":"BANCO FRANCES E ITALIANO DE COLOMBIA","DIRECCION":"KR 43A   1SUR 100","ANEXO_DIR_":"L-101","BARRIO":"","MUNICIPIO":"MEDELLIN","TELEFONO":"3124309","CATEGORIA":"BANCOS Y CORPORACIONES"}},
{"type":"Feature","geometry":{"type":"Point","coordinates":[-75.58883974302634,6.249259762731334]},"properties":{"OBJECTID_1":619,"OBJECTID":817,"NOMBRE":"BANCO GANADERO","DIRECCION":"CL 44   69 96","ANEXO_DIR_":"SAN JUAN","BARRIO":"","MUNICIPIO":"MEDELLIN","TELEFONO":"2604433","CATEGORIA":"BANCOS Y CORPORACIONES"}},
{"type":"Feature","geometry":{"type":"Point","coordinates":[-75.58101282875285,6.255322349223026]},"properties":{"OBJECTID_1":620,"OBJECTID":818,"NOMBRE":"BANCO GANADERO","DIRECCION":"CL 49B   64C 61","ANEXO_DIR_":"SUCURSAL EXITO","BARRIO":"","MUNICIPIO":"MEDELLIN","TELEFONO":"2604241","CATEGORIA":"BANCOS Y CORPORACIONES"}},
{"type":"Feature","geometry":{"type":"Point","coordinates":[-75.5739396180372,6.200708430450275]},"properties":{"OBJECTID_1":621,"OBJECTID":819,"NOMBRE":"BANCO GANADERO","DIRECCION":"CL 4SUR   43AA 16","ANEXO_DIR_":"C.C OVIEDO L-101","BARRIO":"","MUNICIPIO":"MEDELLIN","TELEFONO":"2660055","CATEGORIA":"BANCOS Y CORPORACIONES"}},
{"type":"Feature","geometry":{"type":"Point","coordinates":[-75.56876285572909,6.24988410339216]},"properties":{"OBJECTID_1":622,"OBJECTID":820,"NOMBRE":"BANCO GANADERO","DIRECCION":"CL 50   51 24","ANEXO_DIR_":"P-3","BARRIO":"","MUNICIPIO":"MEDELLIN","TELEFONO":"5110607","CATEGORIA":"BANCOS Y CORPORACIONES"}},
{"type":"Feature","geometry":{"type":"Point","coordinates":[-75.60250837877659,6.225599462189098]},"properties":{"OBJECTID_1":1,"OBJECTID":8,"NOMBRE":"ABARROTES EL OSCAR","DIRECCION":"CL 20 A   81 24","ANEXO_DIR_":"","BARRIO":"","MUNICIPIO":"MEDELLIN","TELEFONO":"2381592","CATEGORIA":"ABARROTES"}},
{"type":"Feature","geometry":{"type":"Point","coordinates":[-75.55041089863177,6.299083043771818]},"properties":{"OBJECTID_1":2,"OBJECTID":13,"NOMBRE":"ABARROTES LA 109","DIRECCION":"CL 109   46 51","ANEXO_DIR_":"","BARRIO":"","MUNICIPIO":"MEDELLIN","TELEFONO":"2580050","CATEGORIA":"ABARROTES"}},
{"type":"Feature","geometry":{"type":"Point","coordinates":[-75.60654600260996,6.251181510897315]},"properties":{"OBJECTID_1":3,"OBJECTID":16,"NOMBRE":"ABARROTES LA AMÉRICA","DIRECCION":"CL 44   88 08","ANEXO_DIR_":"","BARRIO":"La América","MUNICIPIO":"MEDELLIN","TELEFONO":"2521693","CATEGORIA":"ABARROTES"}},
{"type":"Feature","geometry":{"type":"Point","coordinates":[-75.56069427087908,6.24591383907368]},"properties":{"OBJECTID_1":4,"OBJECTID":17,"NOMBRE":"ABARROTES LOS OLAYA","DIRECCION":"CL 50   40 03","ANEXO_DIR_":"","BARRIO":"","MUNICIPIO":"MEDELLIN","TELEFONO":"2397143","CATEGORIA":"ABARROTES"}},
{"type":"Feature","geometry":{"type":"Point","coordinates":[-75.57323498964631,6.247162141259467]},"properties":{"OBJECTID_1":5,"OBJECTID":18,"NOMBRE":"ABARROTES LUIS JAVIER RAMÍREZ","DIRECCION":"KR 54   45 23","ANEXO_DIR_":"","BARRIO":"","MUNICIPIO":"MEDELLIN","TELEFONO":"5112127","CATEGORIA":"ABARROTES"}},
{"type":"Feature","geometry":{"type":"Point","coordinates":[-75.56088668318702,6.246132966362283]},"properties":{"OBJECTID_1":6,"OBJECTID":19,"NOMBRE":"ABARROTES NACIONALES","DIRECCION":"CL 50   40 02","ANEXO_DIR_":"","BARRIO":"","MUNICIPIO":"MEDELLIN","TELEFONO":"2397089","CATEGORIA":"ABARROTES"}},
{"type":"Feature","geometry":{"type":"Point","coordinates":[-75.563968175401,6.242996918947925]},"properties":{"OBJECTID_1":7,"OBJECTID":22,"NOMBRE":"ABARROTES PONY","DIRECCION":"CL 46   42 05","ANEXO_DIR_":"","BARRIO":"","MUNICIPIO":"MEDELLIN","TELEFONO":"1393730","CATEGORIA":"ABARROTES"}},
{"type":"Feature","geometry":{"type":"Point","coordinates":[-75.56069946799799,6.245850829778056]},"properties":{"OBJECTID_1":8,"OBJECTID":23,"NOMBRE":"ABARROTES RP","DIRECCION":"KR 40   49 87","ANEXO_DIR_":"","BARRIO":"","MUNICIPIO":"MEDELLIN","TELEFONO":"2394845","CATEGORIA":"ABARROTES"}},
{"type":"Feature","geometry":{"type":"Point","coordinates":[-75.57239219798359,6.247978385883602]},"properties":{"OBJECTID_1":9,"OBJECTID":28,"NOMBRE":"AGENCIA DE ABARROTES DAMASCO","DIRECCION":"KR 53 A   45 117","ANEXO_DIR_":"","BARRIO":"","MUNICIPIO":"MEDELLIN","TELEFONO":"5113150","CATEGORIA":"ABARROTES"}},
{"type":"Feature","geometry":{"type":"Point","coordinates":[-75.55844655967145,6.2735774672837685]},"properties":{"OBJECTID_1":10,"OBJECTID":32,"NOMBRE":"AGENCIA DE ABARROTES EL CIELO","DIRECCION":"CL 80   49 110","ANEXO_DIR_":"Local 241","BARRIO":"","MUNICIPIO":"MEDELLIN","TELEFONO":"2339232","CATEGORIA":"ABARROTES"}},
{"type":"Feature","geometry":{"type":"Point","coordinates":[-75.59719157198626,6.23193545831162]},"properties":{"OBJECTID_1":11,"OBJECTID":35,"NOMBRE":"AGENCIA DE ABARROTES LA MAYORÍA","DIRECCION":"CL 30 A   77 13","ANEXO_DIR_":"","BARRIO":"","MUNICIPIO":"MEDELLIN","TELEFONO":"3424940","CATEGORIA":"ABARROTES"}},
{"type":"Feature","geometry":{"type":"Point","coordinates":[-75.57556804376603,6.24860400308737]},"properties":{"OBJECTID_1":12,"OBJECTID":50,"NOMBRE":"ANTIOQUEÑA DE VÍVERES","DIRECCION":"KR 57A   45A 15","ANEXO_DIR_":"","BARRIO":"","MUNICIPIO":"MEDELLIN","TELEFONO":"5138182","CATEGORIA":"ABARROTES"}},
{"type":"Feature","geometry":{"type":"Point","coordinates":[-75.57373374732569,6.218131479115178]},"properties":{"OBJECTID_1":13,"OBJECTID":63,"NOMBRE":"COMPLEJO DISTRIBUIDORES ASOCIADOS","DIRECCION":"CL 17   43F 155","ANEXO_DIR_":"","BARRIO":"","MUNICIPIO":"MEDELLIN","TELEFONO":"2662421","CATEGORIA":"ABARROTES"}},
{"type":"Feature","geometry":{"type":"Point","coordinates":[-75.59653986363902,6.227126049141539]},"properties":{"OBJECTID_1":14,"OBJECTID":65,"NOMBRE":"DISTRIBUIDORA DE ABARROTES LA POSESIÓN","DIRECCION":"KR 76   25 08","ANEXO_DIR_":"","BARRIO":"","MUNICIPIO":"MEDELLIN","TELEFONO":"3417303","CATEGORIA":"ABARROTES"}},
{"type":"Feature","geometry":{"type":"Point","coordinates":[-75.54206832646986,6.234599974173294]},"properties":{"OBJECTID_1":15,"OBJECTID":75,"NOMBRE":"GRANERO ALZATE","DIRECCION":"KR 15   50 13","ANEXO_DIR_":"","BARRIO":"","MUNICIPIO":"MEDELLIN","TELEFONO":"2264197","CATEGORIA":"ABARROTES"}},
{"type":"Feature","geometry":{"type":"Point","coordinates":[-75.61901085521038,6.251695675167918]},"properties":{"OBJECTID_1":16,"OBJECTID":76,"NOMBRE":"GRANERO CAMI","DIRECCION":"CL 38A   106A 04","ANEXO_DIR_":"","BARRIO":"","MUNICIPIO":"MEDELLIN","TELEFONO":"2520174","CATEGORIA":"ABARROTES"}},
{"type":"Feature","geometry":{"type":"Point","coordinates":[-75.60092292057259,6.20751249216826]},"properties":{"OBJECTID_1":17,"OBJECTID":78,"NOMBRE":"GRANERO CHEPE PUERTA","DIRECCION":"KR 79A   3 S  06","ANEXO_DIR_":"","BARRIO":"","MUNICIPIO":"MEDELLIN","TELEFONO":"3414684","CATEGORIA":"ABARROTES"}},
{"type":"Feature","geometry":{"type":"Point","coordinates":[-75.56353463021239,6.278265977501013]},"properties":{"OBJECTID_1":18,"OBJECTID":79,"NOMBRE":"GRANERO CÓRDOBA","DIRECCION":"KR 51D   82C 06","ANEXO_DIR_":"","BARRIO":"","MUNICIPIO":"MEDELLIN","TELEFONO":"2122303","CATEGORIA":"ABARROTES"}},
{"type":"Feature","geometry":{"type":"Point","coordinates":[-75.59830039412832,6.235589764024367]},"properties":{"OBJECTID_1":19,"OBJECTID":80,"NOMBRE":"GRANERO EL CAPOTE","DIRECCION":"KR 78   32 B 02","ANEXO_DIR_":"","BARRIO":"","MUNICIPIO":"MEDELLIN","TELEFONO":"2386942","CATEGORIA":"ABARROTES"}},
{"type":"Feature","geometry":{"type":"Point","coordinates":[-75.58176977121533,6.294091709491009]},"properties":{"OBJECTID_1":20,"OBJECTID":82,"NOMBRE":"GRANERO GOSÁN","DIRECCION":"KR 80   95A  110","ANEXO_DIR_":"","BARRIO":"","MUNICIPIO":"MEDELLIN","TELEFONO":"4771910","CATEGORIA":"ABARROTES"}},
{"type":"Feature","geometry":{"type":"Point","coordinates":[-75.56093512529417,6.245426173716451]},"properties":{"OBJECTID_1":21,"OBJECTID":83,"NOMBRE":"GRANERO JAIME SALDARRIAGA","DIRECCION":"KR 40   49 37","ANEXO_DIR_":"","BARRIO":"","MUNICIPIO":"MEDELLIN","TELEFONO":"2397018","CATEGORIA":"ABARROTES"}},
{"type":"Feature","geometry":{"type":"Point","coordinates":[-75.55936696676054,6.246115063910234]},"properties":{"OBJECTID_1":22,"OBJECTID":84,"NOMBRE":"GRANERO JOHN J.SALDARRIAGA","DIRECCION":"KR 39   50A 29","ANEXO_DIR_":"","BARRIO":"","MUNICIPIO":"MEDELLIN","TELEFONO":"2163812","CATEGORIA":"ABARROTES"}},
{"type":"Feature","geometry":{"type":"Point","coordinates":[-75.6020064041934,6.253760558663959]},"properties":{"OBJECTID_1":23,"OBJECTID":85,"NOMBRE":"GRANERO LA FLORESTA","DIRECCION":"KR 82   45C 24","ANEXO_DIR_":"","BARRIO":"La Floresta","MUNICIPIO":"MEDELLIN","TELEFONO":"4131728","CATEGORIA":"ABARROTES"}},
{"type":"Feature","geometry":{"type":"Point","coordinates":[-75.58628252096419,6.247034393738573]},"properties":{"OBJECTID_1":24,"OBJECTID":86,"NOMBRE":"GRANERO LIBERTADORES","DIRECCION":"KR 68   42 2","ANEXO_DIR_":"","BARRIO":"Libertadores","MUNICIPIO":"MEDELLIN","TELEFONO":"2307322","CATEGORIA":"ABARROTES"}},
{"type":"Feature","geometry":{"type":"Point","coordinates":[-75.55098791567134,6.263914111610328]},"properties":{"OBJECTID_1":25,"OBJECTID":87,"NOMBRE":"GRANERO MI MERCADITO","DIRECCION":"KR 39A   68 02","ANEXO_DIR_":"","BARRIO":"","MUNICIPIO":"MEDELLIN","TELEFONO":"2339650","CATEGORIA":"ABARROTES"}},
{"type":"Feature","geometry":{"type":"Point","coordinates":[-75.55430821747942,6.272088467588701]},"properties":{"OBJECTID_1":26,"OBJECTID":88,"NOMBRE":"GRANERO MIXTO CAMBORE","DIRECCION":"KR 45   79 04","ANEXO_DIR_":"","BARRIO":"","MUNICIPIO":"MEDELLIN","TELEFONO":"2337733","CATEGORIA":"ABARROTES"}},
{"type":"Feature","geometry":{"type":"Point","coordinates":[-75.54558138145573,6.266061710675333]},"properties":{"OBJECTID_1":27,"OBJECTID":89,"NOMBRE":"GRANERO ORLEANA","DIRECCION":"KR 33   71 50","ANEXO_DIR_":"","BARRIO":"","MUNICIPIO":"MEDELLIN","TELEFONO":"2841050","CATEGORIA":"ABARROTES"}},
{"type":"Feature","geometry":{"type":"Point","coordinates":[-75.58520763228749,6.211959430006158]},"properties":{"OBJECTID_1":28,"OBJECTID":91,"NOMBRE":"GRANERO RUSIA","DIRECCION":"CL 5   55 29","ANEXO_DIR_":"","BARRIO":"","MUNICIPIO":"MEDELLIN","TELEFONO":"2858565","CATEGORIA":"ABARROTES"}},
{"type":"Feature","geometry":{"type":"Point","coordinates":[-75.56563564577561,6.30257463769477]},"properties":{"OBJECTID_1":29,"OBJECTID":92,"NOMBRE":"GRANERO Y LEGUMBRERÍA PUNTO BUENO","DIRECCION":"KR 64 D   104A 21","ANEXO_DIR_":"","BARRIO":"","MUNICIPIO":"MEDELLIN","TELEFONO":"4715364","CATEGORIA":"ABARROTES"}},
{"type":"Feature","geometry":{"type":"Point","coordinates":[-75.59835945433835,6.266452649930772]},"properties":{"OBJECTID_1":30,"OBJECTID":93,"NOMBRE":"GRANEROS BAJOS DEL ESCORIAL","DIRECCION":"KR 82   52B  87","ANEXO_DIR_":"","BARRIO":"","MUNICIPIO":"MEDELLIN","TELEFONO":"4218233","CATEGORIA":"ABARROTES"}},
{"type":"Feature","geometry":{"type":"Point","coordinates":[-75.57323498964631,6.247162141259467]},"properties":{"OBJECTID_1":31,"OBJECTID":94,"NOMBRE":"GRANOS Y ABARROTES LUIS RAMÍREZ","DIRECCION":"KR 54   45 23","ANEXO_DIR_":"","BARRIO":"","MUNICIPIO":"MEDELLIN","TELEFONO":"5112127","CATEGORIA":"ABARROTES"}},
{"type":"Feature","geometry":{"type":"Point","coordinates":[-75.55334079337163,6.3061204179731885]},"properties":{"OBJECTID_1":32,"OBJECTID":97,"NOMBRE":"PROVEEDORA RAYBAL","DIRECCION":"CL 123   50 B 35","ANEXO_DIR_":"","BARRIO":"","MUNICIPIO":"MEDELLIN","TELEFONO":"4612659","CATEGORIA":"ABARROTES"}},
{"type":"Feature","geometry":{"type":"Point","coordinates":[-75.5781885189988,6.285648245437743]},"properties":{"OBJECTID_1":33,"OBJECTID":100,"NOMBRE":"TIENDA DE ABARROTES HENRY OSPINA","DIRECCION":"KR 72   90 31","ANEXO_DIR_":"","BARRIO":"","MUNICIPIO":"MEDELLIN","TELEFONO":"4426241","CATEGORIA":"ABARROTES"}},
{"type":"Feature","geometry":{"type":"Point","coordinates":[-75.56688000292779,6.212761497160894]},"properties":{"OBJECTID_1":34,"OBJECTID":102,"NOMBRE":"AEROMEDELLÍN","DIRECCION":"CL 12   39 306","ANEXO_DIR_":"","BARRIO":"El Poblado","MUNICIPIO":"MEDELLIN","TELEFONO":"3126688","CATEGORIA":"AGENCIAS DE VIAJE"}},
{"type":"Feature","geometry":{"type":"Point","coordinates":[-75.57043704527328,6.235110118798132]},"properties":{"OBJECTID_1":35,"OBJECTID":104,"NOMBRE":"AGECIA DE VIAJES CARLSON WAGONLIT TRAVEL","DIRECCION":"KR 43A   34 95","ANEXO_DIR_":"C. Cial Almacentro L-203","BARRIO":"","MUNICIPIO":"MEDELLIN","TELEFONO":"3812930","CATEGORIA":"AGENCIAS DE VIAJE"}},
{"type":"Feature","geometry":{"type":"Point","coordinates":[-75.57732424267408,6.190325840567628]},"properties":{"OBJECTID_1":36,"OBJECTID":105,"NOMBRE":"AGENCIA CASA DE VIAJES","DIRECCION":"CL 16 SUR   43A 49","ANEXO_DIR_":"Oficina 304","BARRIO":"","MUNICIPIO":"MEDELLIN","TELEFONO":"3133535","CATEGORIA":"AGENCIAS DE VIAJE"}},
{"type":"Feature","geometry":{"type":"Point","coordinates":[-75.563875104185,6.254809311475826]},"properties":{"OBJECTID_1":37,"OBJECTID":106,"NOMBRE":"AGENCIA DE TURISMO VIAJES COLOMBIA","DIRECCION":"KR 49   57 51","ANEXO_DIR_":"C.Cial Villanueva L-212","BARRIO":"La Candelari","MUNICIPIO":"MEDELLIN","TELEFONO":"5111500","CATEGORIA":"AGENCIAS DE VIAJE"}},
{"type":"Feature","geometry":{"type":"Point","coordinates":[-75.56824142400416,6.208320247570853]},"properties":{"OBJECTID_1":38,"OBJECTID":107,"NOMBRE":"AGENCIA DE VIAJES A FONDO LTDA.","DIRECCION":"KR  39   8 45","ANEXO_DIR_":"Parque Lleras","BARRIO":"","MUNICIPIO":"MEDELLIN","TELEFONO":"3812525","CATEGORIA":"AGENCIAS DE VIAJE"}},
{"type":"Feature","geometry":{"type":"Point","coordinates":[-75.57629892793929,6.213857249286663]},"properties":{"OBJECTID_1":39,"OBJECTID":108,"NOMBRE":"AGENCIA DE VIAJES BOLIVAR LTDA.","DIRECCION":"KR 48   10 45","ANEXO_DIR_":"Local 380","BARRIO":"","MUNICIPIO":"MEDELLIN","TELEFONO":"2683111","CATEGORIA":"AGENCIAS DE VIAJE"}},
{"type":"Feature","geometry":{"type":"Point","coordinates":[-75.57043704527328,6.235110118798132]},"properties":{"OBJECTID_1":40,"OBJECTID":109,"NOMBRE":"AGENCIA DE VIAJES LAS BUSETICAS","DIRECCION":"KR 43A   34 95","ANEXO_DIR_":"C. Cial Almacentro L-298","BARRIO":"","MUNICIPIO":"MEDELLIN","TELEFONO":"2627444","CATEGORIA":"AGENCIAS DE VIAJE"}},
{"type":"Feature","geometry":{"type":"Point","coordinates":[-75.58230041401741,6.255327722122139]},"properties":{"OBJECTID_1":41,"OBJECTID":110,"NOMBRE":"AGENCIA DE VIAJES LOS ANDES LTDA.","DIRECCION":"CL 49A   65A 57","ANEXO_DIR_":"","BARRIO":"","MUNICIPIO":"MEDELLIN","TELEFONO":"2601612","CATEGORIA":"AGENCIAS DE VIAJE"}},
{"type":"Feature","geometry":{"type":"Point","coordinates":[-75.56390858427666,6.24497290174175]},"properties":{"OBJECTID_1":42,"OBJECTID":111,"NOMBRE":"AGENCIA DE VIAJES NATURALEZA Y FANTASIA","DIRECCION":"KR 43   47 74","ANEXO_DIR_":"Local 136 Torre Girardot Of.13","BARRIO":"","MUNICIPIO":"MEDELLIN","TELEFONO":"2177546","CATEGORIA":"AGENCIAS DE VIAJE"}},
{"type":"Feature","geometry":{"type":"Point","coordinates":[-75.5696244265731,6.234629668761203]},"properties":{"OBJECTID_1":43,"OBJECTID":112,"NOMBRE":"AGENCIA DE VIAJES NUEVO MUNDO LTDA.","DIRECCION":"CL 34   43 66","ANEXO_DIR_":"C.Cial San Diego Local 115","BARRIO":"","MUNICIPIO":"MEDELLIN","TELEFONO":"2327200","CATEGORIA":"AGENCIAS DE VIAJE"}},
{"type":"Feature","geometry":{"type":"Point","coordinates":[-75.58392664934601,6.246360439933687]},"properties":{"OBJECTID_1":44,"OBJECTID":113,"NOMBRE":"AGENCIA DE VIAJES ORBITA LTDA.","DIRECCION":"KR 65   42 57","ANEXO_DIR_":"","BARRIO":"","MUNICIPIO":"MEDELLIN","TELEFONO":"2307099","CATEGORIA":"AGENCIAS DE VIAJE"}},
{"type":"Feature","geometry":{"type":"Point","coordinates":[-75.57054844112345,6.245980690961904]},"properties":{"OBJECTID_1":45,"OBJECTID":114,"NOMBRE":"AGENCIA DE VIAJES PRONTUR LTDA.","DIRECCION":"CL 45   51 26","ANEXO_DIR_":"Local 220","BARRIO":"","MUNICIPIO":"MEDELLIN","TELEFONO":"5138133","CATEGORIA":"AGENCIAS DE VIAJE"}},
{"type":"Feature","geometry":{"type":"Point","coordinates":[-75.56470566495193,6.249038811203353]},"properties":{"OBJECTID_1":46,"OBJECTID":115,"NOMBRE":"AGENCIA DE VIAJES REALTURS","DIRECCION":"KR 46   50 28","ANEXO_DIR_":"Avenida Oriental","BARRIO":"Centro","MUNICIPIO":"MEDELLIN","TELEFONO":"5116000","CATEGORIA":"AGENCIAS DE VIAJE"}},
{"type":"Feature","geometry":{"type":"Point","coordinates":[-75.56707847651637,6.252854234373661]},"properties":{"OBJECTID_1":47,"OBJECTID":116,"NOMBRE":"AGENCIA DE VIAJES RUTASSA LTDA.","DIRECCION":"KR 50A   53 14","ANEXO_DIR_":"","BARRIO":"","MUNICIPIO":"MEDELLIN","TELEFONO":"2315200","CATEGORIA":"AGENCIAS DE VIAJE"}},
{"type":"Feature","geometry":{"type":"Point","coordinates":[-75.56472826607796,6.2074453684213955]},"properties":{"OBJECTID_1":48,"OBJECTID":117,"NOMBRE":"AGENCIA DE VIAJES TERRANOVA Y CIA. LTDA.","DIRECCION":"KR 33   7 165","ANEXO_DIR_":"","BARRIO":"","MUNICIPIO":"MEDELLIN","TELEFONO":"2665000","CATEGORIA":"AGENCIAS DE VIAJE"}},
{"type":"Feature","geometry":{"type":"Point","coordinates":[-75.57362246703272,6.200635143484629]},"properties":{"OBJECTID_1":49,"OBJECTID":118,"NOMBRE":"AGENCIA DE VIAJES TRAVEL CENTER S.A","DIRECCION":"CL 4 SUR   43AA 30","ANEXO_DIR_":"Local 102","BARRIO":"","MUNICIPIO":"MEDELLIN","TELEFONO":"3117978","CATEGORIA":"AGENCIAS DE VIAJE"}},
{"type":"Feature","geometry":{"type":"Point","coordinates":[-75.57035312723396,6.21767664283989]},"properties":{"OBJECTID_1":50,"OBJECTID":119,"NOMBRE":"AGENCIA DE VIAJES TRAYECTOS LTDA.","DIRECCION":"KR 43B   16 80","ANEXO_DIR_":"Local 101","BARRIO":"","MUNICIPIO":"MEDELLIN","TELEFONO":"2660086","CATEGORIA":"AGENCIAS DE VIAJE"}},
{"type":"Feature","geometry":{"type":"Point","coordinates":[-75.55910769310852,6.209001610780344]},"properties":{"OBJECTID_1":51,"OBJECTID":120,"NOMBRE":"AGENCIA DE VIAJES TURABÁ","DIRECCION":"CL 10   30 30","ANEXO_DIR_":"Pinar del Río L-307","BARRIO":"","MUNICIPIO":"MEDELLIN","TELEFONO":"3126800","CATEGORIA":"AGENCIAS DE VIAJE"}},
{"type":"Feature","geometry":{"type":"Point","coordinates":[-75.56386460083546,6.250542690580928]},"properties":{"OBJECTID_1":52,"OBJECTID":121,"NOMBRE":"AGENCIA DE VIAJES TURABÁ","DIRECCION":"CL 53   45 112","ANEXO_DIR_":"Local 112 Colseguros","BARRIO":"","MUNICIPIO":"MEDELLIN","TELEFONO":"5135353","CATEGORIA":"AGENCIAS DE VIAJE"}},
{"type":"Feature","geometry":{"type":"Point","coordinates":[-75.56285895457408,6.250732727994255]},"properties":{"OBJECTID_1":53,"OBJECTID":124,"NOMBRE":"AGENCIA DE VIAJES TURISMO MAYA LONDOÑO LTDA.","DIRECCION":"CL 54   45 29","ANEXO_DIR_":"","BARRIO":"","MUNICIPIO":"MEDELLIN","TELEFONO":"2314666","CATEGORIA":"AGENCIAS DE VIAJE"}},
{"type":"Feature","geometry":{"type":"Point","coordinates":[-75.58447676355998,6.240075260615414]},"properties":{"OBJECTID_1":54,"OBJECTID":125,"NOMBRE":"AGENCIA DE VIAJES UNIVIAJES","DIRECCION":"KR 65D   34 09","ANEXO_DIR_":"","BARRIO":"","MUNICIPIO":"MEDELLIN","TELEFONO":"2651112","CATEGORIA":"AGENCIAS DE VIAJE"}},
{"type":"Feature","geometry":{"type":"Point","coordinates":[-75.5696244265731,6.234629668761203]},"properties":{"OBJECTID_1":55,"OBJECTID":126,"NOMBRE":"AGENCIA DE VIAJES VIAJES UNIVERSO","DIRECCION":"CL 34   43 66","ANEXO_DIR_":"C.Cial San Diego- Of 220","BARRIO":"","MUNICIPIO":"MEDELLIN","TELEFONO":"2321525","CATEGORIA":"AGENCIAS DE VIAJE"}},
{"type":"Feature","geometry":{"type":"Point","coordinates":[-75.59726756210102,6.261970619869949]},"properties":{"OBJECTID_1":56,"OBJECTID":127,"NOMBRE":"AGENCIA DE VIAJES Y TURISMO ALMAR","DIRECCION":"KR 80   49A 29","ANEXO_DIR_":"","BARRIO":"","MUNICIPIO":"MEDELLIN","TELEFONO":"4214969","CATEGORIA":"AGENCIAS DE VIAJE"}},
{"type":"Feature","geometry":{"type":"Point","coordinates":[-75.56466632964816,6.251587299793926]},"properties":{"OBJECTID_1":57,"OBJECTID":128,"NOMBRE":"AGENCIA DE VIAJESSOL CARIBE","DIRECCION":"KR 47   53 45","ANEXO_DIR_":"Of 105 Pasaje Vicente Villa (J","BARRIO":"Centro","MUNICIPIO":"MEDELLIN","TELEFONO":"5139819","CATEGORIA":"AGENCIAS DE VIAJE"}},
{"type":"Feature","geometry":{"type":"Point","coordinates":[-75.59217480328105,6.26107426240281]},"properties":{"OBJECTID_1":58,"OBJECTID":129,"NOMBRE":"AGENCIA PUNTO DE VIAJES LTDA.","DIRECCION":"CL 50   76 83","ANEXO_DIR_":"","BARRIO":"","MUNICIPIO":"MEDELLIN","TELEFONO":"4370005","CATEGORIA":"AGENCIAS DE VIAJE"}},
{"type":"Feature","geometry":{"type":"Point","coordinates":[-75.6024692473082,6.249061606511364]},"properties":{"OBJECTID_1":59,"OBJECTID":130,"NOMBRE":"AGENCIA PUNTO DE VIAJES LTDA.","DIRECCION":"KR 81   42 129","ANEXO_DIR_":"","BARRIO":"","MUNICIPIO":"MEDELLIN","TELEFONO":"4120680","CATEGORIA":"AGENCIAS DE VIAJE"}},
{"type":"Feature","geometry":{"type":"Point","coordinates":[-75.56706632615064,6.250460546672632]},"properties":{"OBJECTID_1":60,"OBJECTID":131,"NOMBRE":"ALFARECREACIÓN","DIRECCION":"CL 52   49 74","ANEXO_DIR_":"","BARRIO":"La Candelari","MUNICIPIO":"MEDELLIN","TELEFONO":"5142351","CATEGORIA":"AGENCIAS DE VIAJE"}},
{"type":"Feature","geometry":{"type":"Point","coordinates":[-75.57043704527328,6.235110118798132]},"properties":{"OBJECTID_1":61,"OBJECTID":132,"NOMBRE":"ANATO","DIRECCION":"KR 43A   34 95","ANEXO_DIR_":"Local 233","BARRIO":"","MUNICIPIO":"MEDELLIN","TELEFONO":"3812299","CATEGORIA":"AGENCIAS DE VIAJE"}},
{"type":"Feature","geometry":{"type":"Point","coordinates":[-75.59698928562601,6.249669745728921]},"properties":{"OBJECTID_1":62,"OBJECTID":133,"NOMBRE":"ARRECIFES CORALINOS","DIRECCION":"KR 78   43 05","ANEXO_DIR_":"Local 111","BARRIO":"","MUNICIPIO":"MEDELLIN","TELEFONO":"4116675","CATEGORIA":"AGENCIAS DE VIAJE"}},
{"type":"Feature","geometry":{"type":"Point","coordinates":[-75.56486983663687,6.253394331259591]},"properties":{"OBJECTID_1":63,"OBJECTID":134,"NOMBRE":"AVIATUR S.A","DIRECCION":"KR 49   55 25","ANEXO_DIR_":"","BARRIO":"","MUNICIPIO":"MEDELLIN","TELEFONO":"5765000","CATEGORIA":"AGENCIAS DE VIAJE"}},
{"type":"Feature","geometry":{"type":"Point","coordinates":[-75.59196068044665,6.256953884430425]},"properties":{"OBJECTID_1":64,"OBJECTID":135,"NOMBRE":"AZTECA TOURS","DIRECCION":"KR 74   48 37","ANEXO_DIR_":"C.Cial Obelisco Of. 908","BARRIO":"","MUNICIPIO":"MEDELLIN","TELEFONO":"2301032","CATEGORIA":"AGENCIAS DE VIAJE"}},
{"type":"Feature","geometry":{"type":"Point","coordinates":[-75.59819880421962,6.239296831757373]},"properties":{"OBJECTID_1":65,"OBJECTID":137,"NOMBRE":"CASA DE COLOMBIA","DIRECCION":"CL 33A   76 131","ANEXO_DIR_":"","BARRIO":"Laureles","MUNICIPIO":"MEDELLIN","TELEFONO":"4110011","CATEGORIA":"AGENCIAS DE VIAJE"}},
{"type":"Feature","geometry":{"type":"Point","coordinates":[-75.57380716174397,6.198907652325852]},"properties":{"OBJECTID_1":66,"OBJECTID":138,"NOMBRE":"CASA DE COLOMBIA","DIRECCION":"KR 43A   6 SUR  15","ANEXO_DIR_":"C.Cial Oviedo L-106","BARRIO":"El Poblado","MUNICIPIO":"MEDELLIN","TELEFONO":"2682611","CATEGORIA":"AGENCIAS DE VIAJE"}},
{"type":"Feature","geometry":{"type":"Point","coordinates":[-75.56941873097954,6.21073056135558]},"properties":{"OBJECTID_1":67,"OBJECTID":139,"NOMBRE":"CHARVITURS","DIRECCION":"KR 42   10 49","ANEXO_DIR_":"","BARRIO":"","MUNICIPIO":"MEDELLIN","TELEFONO":"3126854","CATEGORIA":"AGENCIAS DE VIAJE"}},
{"type":"Feature","geometry":{"type":"Point","coordinates":[-75.56330574553868,6.252021697074436]},"properties":{"OBJECTID_1":68,"OBJECTID":140,"NOMBRE":"CLUB EL VIAJERO","DIRECCION":"KR 46   54 89","ANEXO_DIR_":"Local 115","BARRIO":"","MUNICIPIO":"MEDELLIN","TELEFONO":"5135731","CATEGORIA":"AGENCIAS DE VIAJE"}},
{"type":"Feature","geometry":{"type":"Point","coordinates":[-75.6022397309605,6.249280166289664]},"properties":{"OBJECTID_1":69,"OBJECTID":141,"NOMBRE":"CLUB TURÍSTICO LATINOAMÉRICANO","DIRECCION":"CL 43   80B 87","ANEXO_DIR_":"","BARRIO":"","MUNICIPIO":"MEDELLIN","TELEFONO":"4117906","CATEGORIA":"AGENCIAS DE VIAJE"}},
{"type":"Feature","geometry":{"type":"Point","coordinates":[-75.57122212379632,6.209955292234256]},"properties":{"OBJECTID_1":70,"OBJECTID":143,"NOMBRE":"COMTUR","DIRECCION":"CL 9   43A 31","ANEXO_DIR_":"Oficina 211","BARRIO":"","MUNICIPIO":"MEDELLIN","TELEFONO":"3114088","CATEGORIA":"AGENCIAS DE VIAJE"}},
{"type":"Feature","geometry":{"type":"Point","coordinates":[-75.59624419980976,6.234195341600759]},"properties":{"OBJECTID_1":71,"OBJECTID":144,"NOMBRE":"CONTRANSPORTE LTDA","DIRECCION":"KR 76   32 58","ANEXO_DIR_":"","BARRIO":"","MUNICIPIO":"MEDELLIN","TELEFONO":"2561841","CATEGORIA":"AGENCIAS DE VIAJE"}},
{"type":"Feature","geometry":{"type":"Point","coordinates":[-75.5999855731356,6.231935775116104]},"properties":{"OBJECTID_1":72,"OBJECTID":145,"NOMBRE":"COSMOVIAJES","DIRECCION":"CL 30A   79 125","ANEXO_DIR_":"","BARRIO":"","MUNICIPIO":"MEDELLIN","TELEFONO":"2387777","CATEGORIA":"AGENCIAS DE VIAJE"}},
{"type":"Feature","geometry":{"type":"Point","coordinates":[-75.57629892793929,6.213857249286663]},"properties":{"OBJECTID_1":73,"OBJECTID":146,"NOMBRE":"CUBANA BRICEÑO ASESORES ASOCIADOS","DIRECCION":"KR 48   10 45","ANEXO_DIR_":"Local 148","BARRIO":"","MUNICIPIO":"MEDELLIN","TELEFONO":"2685860","CATEGORIA":"AGENCIAS DE VIAJE"}},
{"type":"Feature","geometry":{"type":"Point","coordinates":[-75.56330574553868,6.252021697074436]},"properties":{"OBJECTID_1":74,"OBJECTID":147,"NOMBRE":"EXCURSIONES ECOLÓGICAS DE COLOMBIA","DIRECCION":"KR 46   54 89","ANEXO_DIR_":"C.Cial Oriental Local 303","BARRIO":"","MUNICIPIO":"MEDELLIN","TELEFONO":"5114085","CATEGORIA":"AGENCIAS DE VIAJE"}},
{"type":"Feature","geometry":{"type":"Point","coordinates":[-75.6042095595692,6.248506851319563]},"properties":{"OBJECTID_1":75,"OBJECTID":148,"NOMBRE":"G.S. REPRESENTACIONES","DIRECCION":"CL 42C   82 38","ANEXO_DIR_":"","BARRIO":"","MUNICIPIO":"MEDELLIN","TELEFONO":"4121029","CATEGORIA":"AGENCIAS DE VIAJE"}},
{"type":"Feature","geometry":{"type":"Point","coordinates":[-75.55900314915398,6.252695381927436]},"properties":{"OBJECTID_1":76,"OBJECTID":149,"NOMBRE":"GÓMEZ TOURS LTDA.","DIRECCION":"KR 42   58 63","ANEXO_DIR_":"Córdoba","BARRIO":"","MUNICIPIO":"MEDELLIN","TELEFONO":"2397700","CATEGORIA":"AGENCIAS DE VIAJE"}},
{"type":"Feature","geometry":{"type":"Point","coordinates":[-75.58340775259983,6.253455995245897]},"properties":{"OBJECTID_1":77,"OBJECTID":150,"NOMBRE":"MARCO POLO VIAJES","DIRECCION":"CL 48   65 94","ANEXO_DIR_":"","BARRIO":"Estadio","MUNICIPIO":"MEDELLIN","TELEFONO":"2305944","CATEGORIA":"AGENCIAS DE VIAJE"}},
{"type":"Feature","geometry":{"type":"Point","coordinates":[-75.57629892793929,6.213857249286663]},"properties":{"OBJECTID_1":78,"OBJECTID":151,"NOMBRE":"MARCO POLO VIAJES","DIRECCION":"KR 48   10 45","ANEXO_DIR_":"C.Cial Monterrey L-98","BARRIO":"El Poblado","MUNICIPIO":"MEDELLIN","TELEFONO":"2661015","CATEGORIA":"AGENCIAS DE VIAJE"}},
{"type":"Feature","geometry":{"type":"Point","coordinates":[-75.5696244265731,6.234629668761203]},"properties":{"OBJECTID_1":79,"OBJECTID":152,"NOMBRE":"MARCO POLO VIAJES","DIRECCION":"CL 34   43 66","ANEXO_DIR_":"C.Cial San Diego Of. 225","BARRIO":"","MUNICIPIO":"MEDELLIN","TELEFONO":"3813700","CATEGORIA":"AGENCIAS DE VIAJE"}},
{"type":"Feature","geometry":{"type":"Point","coordinates":[-75.56552545249163,6.25171506132642]},"properties":{"OBJECTID_1":80,"OBJECTID":153,"NOMBRE":"MAXXI TOURS LTDA.","DIRECCION":"KR 49   53 19","ANEXO_DIR_":"Pasaje Cial Bancoquia L-106","BARRIO":"","MUNICIPIO":"MEDELLIN","TELEFONO":"5128550","CATEGORIA":"AGENCIAS DE VIAJE"}},
{"type":"Feature","geometry":{"type":"Point","coordinates":[-75.56349835084546,6.251243464142182]},"properties":{"OBJECTID_1":81,"OBJECTID":154,"NOMBRE":"METRÓPOLIS","DIRECCION":"KR 46   53 44","ANEXO_DIR_":"Avenida Oriental","BARRIO":"Centro","MUNICIPIO":"MEDELLIN","TELEFONO":"5142828","CATEGORIA":"AGENCIAS DE VIAJE"}},
{"type":"Feature","geometry":{"type":"Point","coordinates":[-75.59377801069387,6.2430874840770025]},"properties":{"OBJECTID_1":82,"OBJECTID":155,"NOMBRE":"METRÓPOLIS","DIRECCION":"TV 39 B   72 117","ANEXO_DIR_":"Of. 102 Avenida Nutibara","BARRIO":"Centro","MUNICIPIO":"MEDELLIN","TELEFONO":"4112866","CATEGORIA":"AGENCIAS DE VIAJE"}},
{"type":"Feature","geometry":{"type":"Point","coordinates":[-75.5945655625449,6.249853623487536]},"properties":{"OBJECTID_1":83,"OBJECTID":156,"NOMBRE":"MULTI-RUTAS","DIRECCION":"KR 75   44 06","ANEXO_DIR_":"","BARRIO":"","MUNICIPIO":"MEDELLIN","TELEFONO":"4122289","CATEGORIA":"AGENCIAS DE VIAJE"}},
{"type":"Feature","geometry":{"type":"Point","coordinates":[-75.60544215592827,6.243614464579719]},"properties":{"OBJECTID_1":84,"OBJECTID":157,"NOMBRE":"MULTIVIAJES","DIRECCION":"CL 35   82A 45","ANEXO_DIR_":"","BARRIO":"","MUNICIPIO":"MEDELLIN","TELEFONO":"4131457","CATEGORIA":"AGENCIAS DE VIAJE"}},
{"type":"Feature","geometry":{"type":"Point","coordinates":[-75.56918794472843,6.234319847209662]},"properties":{"OBJECTID_1":85,"OBJECTID":158,"NOMBRE":"MUNDIASTUR LTDA.","DIRECCION":"KR 43   33 57","ANEXO_DIR_":"Bloque 4 Oficina 210","BARRIO":"","MUNICIPIO":"MEDELLIN","TELEFONO":"2621411","CATEGORIA":"AGENCIAS DE VIAJE"}},
{"type":"Feature","geometry":{"type":"Point","coordinates":[-75.56739161559435,6.25222141201309]},"properties":{"OBJECTID_1":86,"OBJECTID":159,"NOMBRE":"NUTIVIAJES LTDA","DIRECCION":"CL 52A   50 46","ANEXO_DIR_":"Interior 102","BARRIO":"","MUNICIPIO":"MEDELLIN","TELEFONO":"5111802","CATEGORIA":"AGENCIAS DE VIAJE"}},
{"type":"Feature","geometry":{"type":"Point","coordinates":[-75.57711882541186,6.189894903555677]},"properties":{"OBJECTID_1":87,"OBJECTID":160,"NOMBRE":"PANALPINA TURISMO","DIRECCION":"KR 43A   16 SUR  43","ANEXO_DIR_":"","BARRIO":"El Poblado","MUNICIPIO":"MEDELLIN","TELEFONO":"3132544","CATEGORIA":"AGENCIAS DE VIAJE"}},
{"type":"Feature","geometry":{"type":"Point","coordinates":[-75.57043704527328,6.235110118798132]},"properties":{"OBJECTID_1":88,"OBJECTID":161,"NOMBRE":"PLAN COLOMBIA S.A","DIRECCION":"KR 43A   34 95","ANEXO_DIR_":"C.Cial ALmacentro L-230","BARRIO":"","MUNICIPIO":"MEDELLIN","TELEFONO":"3814708","CATEGORIA":"AGENCIAS DE VIAJE"}},
{"type":"Feature","geometry":{"type":"Point","coordinates":[-75.60373261108506,6.227976020353804]},"properties":{"OBJECTID_1":89,"OBJECTID":162,"NOMBRE":"PROMOTORA TURÍSTICA TURVINA","DIRECCION":"CL 27   81A   53","ANEXO_DIR_":"","BARRIO":"","MUNICIPIO":"MEDELLIN","TELEFONO":"2560420","CATEGORIA":"AGENCIAS DE VIAJE"}},
{"type":"Feature","geometry":{"type":"Point","coordinates":[-75.59140901699999,6.196524817459597]},"properties":{"OBJECTID_1":90,"OBJECTID":163,"NOMBRE":"REPRESENTACIONES TURÍSTICAS OSCAR PAREJA","DIRECCION":"CL 12C SUR   52A 18","ANEXO_DIR_":"","BARRIO":"","MUNICIPIO":"MEDELLIN","TELEFONO":"3610242","CATEGORIA":"AGENCIAS DE VIAJE"}},
{"type":"Feature","geometry":{"type":"Point","coordinates":[-75.59718178384965,6.241502018332739]},"properties":{"OBJECTID_1":91,"OBJECTID":164,"NOMBRE":"S.L REPRESENTACIONES","DIRECCION":"CL 34A   76 20","ANEXO_DIR_":"Oficina 105","BARRIO":"","MUNICIPIO":"MEDELLIN","TELEFONO":"4140485","CATEGORIA":"AGENCIAS DE VIAJE"}},
{"type":"Feature","geometry":{"type":"Point","coordinates":[-75.55941740015959,6.246027913652496]},"properties":{"OBJECTID_1":92,"OBJECTID":165,"NOMBRE":"SAN VALENTÍN","DIRECCION":"KR 39   50A 23","ANEXO_DIR_":"","BARRIO":"","MUNICIPIO":"MEDELLIN","TELEFONO":"2175988","CATEGORIA":"AGENCIAS DE VIAJE"}},
{"type":"Feature","geometry":{"type":"Point","coordinates":[-75.59636079664645,6.246322249059302]},"properties":{"OBJECTID_1":93,"OBJECTID":166,"NOMBRE":"SERVIVIAJES","DIRECCION":"TV 39B   75 06","ANEXO_DIR_":"","BARRIO":"","MUNICIPIO":"MEDELLIN","TELEFONO":"4128781","CATEGORIA":"AGENCIAS DE VIAJE"}},
{"type":"Feature","geometry":{"type":"Point","coordinates":[-75.56673760043722,6.252192700140233]},"properties":{"OBJECTID_1":94,"OBJECTID":167,"NOMBRE":"SETRES REPRESENTACIONES","DIRECCION":"KR 50   52 140","ANEXO_DIR_":"Oficina 606","BARRIO":"","MUNICIPIO":"MEDELLIN","TELEFONO":"5116579","CATEGORIA":"AGENCIAS DE VIAJE"}},
{"type":"Feature","geometry":{"type":"Point","coordinates":[-75.58772079714105,6.252372313646457]},"properties":{"OBJECTID_1":95,"OBJECTID":168,"NOMBRE":"SOL MELIÁ","DIRECCION":"CL 47   69A 13","ANEXO_DIR_":"","BARRIO":"","MUNICIPIO":"MEDELLIN","TELEFONO":"2601688","CATEGORIA":"AGENCIAS DE VIAJE"}},
{"type":"Feature","geometry":{"type":"Point","coordinates":[-75.56752116365935,6.248098815371301]},"properties":{"OBJECTID_1":96,"OBJECTID":169,"NOMBRE":"SURAMERICANA DE TURISMO","DIRECCION":"KR 49   48 59","ANEXO_DIR_":"Oficina 402","BARRIO":"","MUNICIPIO":"MEDELLIN","TELEFONO":"5122179","CATEGORIA":"AGENCIAS DE VIAJE"}},
{"type":"Feature","geometry":{"type":"Point","coordinates":[-75.57680200287979,6.191076026993522]},"properties":{"OBJECTID_1":97,"OBJECTID":170,"NOMBRE":"TIERRA MAR AIRE S.A","DIRECCION":"KR 43A   15 S 19","ANEXO_DIR_":"Edificio Xerox","BARRIO":"El Poblado","MUNICIPIO":"MEDELLIN","TELEFONO":"3131919","CATEGORIA":"AGENCIAS DE VIAJE"}},
{"type":"Feature","geometry":{"type":"Point","coordinates":[-75.56640105285733,6.256355113972568]},"properties":{"OBJECTID_1":98,"OBJECTID":171,"NOMBRE":"TRAVEL TOURS LTDA.","DIRECCION":"KR 51   57 59","ANEXO_DIR_":"","BARRIO":"","MUNICIPIO":"MEDELLIN","TELEFONO":"5138627","CATEGORIA":"AGENCIAS DE VIAJE"}},
{"type":"Feature","geometry":{"type":"Point","coordinates":[-75.56992469322616,6.210293633037919]},"properties":{"OBJECTID_1":99,"OBJECTID":172,"NOMBRE":"TURIASES LTDA.","DIRECCION":"CL 10   42 45","ANEXO_DIR_":"Of. 420 La Plaza del Poblado","BARRIO":"El Poblado","MUNICIPIO":"MEDELLIN","TELEFONO":"3115902","CATEGORIA":"AGENCIAS DE VIAJE"}},
{"type":"Feature","geometry":{"type":"Point","coordinates":[-75.58839818256467,6.260222460979689]},"properties":{"OBJECTID_1":100,"OBJECTID":173,"NOMBRE":"TURISMO 2000","DIRECCION":"CL 51   72 30","ANEXO_DIR_":"Local 101","BARRIO":"","MUNICIPIO":"MEDELLIN","TELEFONO":"4363688","CATEGORIA":"AGENCIAS DE VIAJE"}},
{"type":"Feature","geometry":{"type":"Point","coordinates":[-75.59091302011494,6.231570236441785]},"properties":{"OBJECTID_1":101,"OBJECTID":174,"NOMBRE":"TURISMO ECONÓMICO ANGÉLICA DE CÓRDOBA","DIRECCION":"KR 69C   30 13","ANEXO_DIR_":"","BARRIO":"","MUNICIPIO":"MEDELLIN","TELEFONO":"2355497","CATEGORIA":"AGENCIAS DE VIAJE"}},
{"type":"Feature","geometry":{"type":"Point","coordinates":[-75.59745393989517,6.261651528434117]},"properties":{"OBJECTID_1":102,"OBJECTID":175,"NOMBRE":"VIAJAR Y VIVIR","DIRECCION":"CL 49A   80 19","ANEXO_DIR_":"","BARRIO":"","MUNICIPIO":"MEDELLIN","TELEFONO":"4213160","CATEGORIA":"AGENCIAS DE VIAJE"}},
{"type":"Feature","geometry":{"type":"Point","coordinates":[-75.59066373429556,6.259252483059406]},"properties":{"OBJECTID_1":103,"OBJECTID":176,"NOMBRE":"VIAJES & EXCURSIONES ESCARCHA","DIRECCION":"KR  74   49 127","ANEXO_DIR_":"Piso 2","BARRIO":"Estadio","MUNICIPIO":"MEDELLIN","TELEFONO":"2608091","CATEGORIA":"AGENCIAS DE VIAJE"}},
{"type":"Feature","geometry":{"type":"Point","coordinates":[-75.58328567661736,6.244155061979175]},"properties":{"OBJECTID_1":104,"OBJECTID":177,"NOMBRE":"VIAJES & VIAJES","DIRECCION":"KR 65   40 32","ANEXO_DIR_":"","BARRIO":"","MUNICIPIO":"MEDELLIN","TELEFONO":"2659595","CATEGORIA":"AGENCIAS DE VIAJE"}},
{"type":"Feature","geometry":{"type":"Point","coordinates":[-75.56586637685848,6.2072238038581595]},"properties":{"OBJECTID_1":105,"OBJECTID":178,"NOMBRE":"VIAJES ANTARES","DIRECCION":"KR 35   7 97","ANEXO_DIR_":"","BARRIO":"El Poblado","MUNICIPIO":"MEDELLIN","TELEFONO":"2685211","CATEGORIA":"AGENCIAS DE VIAJE"}},
{"type":"Feature","geometry":{"type":"Point","coordinates":[-75.57122212379632,6.209955292234256]},"properties":{"OBJECTID_1":106,"OBJECTID":179,"NOMBRE":"VIAJES ARCO IRIS S.A","DIRECCION":"CL 9   43A  31","ANEXO_DIR_":"Local 236","BARRIO":"El Poblado","MUNICIPIO":"MEDELLIN","TELEFONO":"312534","CATEGORIA":"AGENCIAS DE VIAJE"}},
{"type":"Feature","geometry":{"type":"Point","coordinates":[-75.59454449101437,6.262562409634699]},"properties":{"OBJECTID_1":107,"OBJECTID":180,"NOMBRE":"VIAJES ECUADOR","DIRECCION":"CL 50   77B 134","ANEXO_DIR_":"Apto 803","BARRIO":"","MUNICIPIO":"MEDELLIN","TELEFONO":"4214623","CATEGORIA":"AGENCIAS DE VIAJE"}},
{"type":"Feature","geometry":{"type":"Point","coordinates":[-75.57475350676609,6.199728462262653]},"properties":{"OBJECTID_1":108,"OBJECTID":181,"NOMBRE":"VIAJES EUPACLA","DIRECCION":"CL 6 SUR   43A 127","ANEXO_DIR_":"Oviedo local 3209","BARRIO":"","MUNICIPIO":"MEDELLIN","TELEFONO":"3212222","CATEGORIA":"AGENCIAS DE VIAJE"}},
{"type":"Feature","geometry":{"type":"Point","coordinates":[-75.5665590863139,6.252506752408178]},"properties":{"OBJECTID_1":109,"OBJECTID":182,"NOMBRE":"VIAJES EUPACLA","DIRECCION":"KR 50   53 28","ANEXO_DIR_":"Centro","BARRIO":"","MUNICIPIO":"MEDELLIN","TELEFONO":"2518881","CATEGORIA":"AGENCIAS DE VIAJE"}},
{"type":"Feature","geometry":{"type":"Point","coordinates":[-75.58759340990495,6.238246961159805]},"properties":{"OBJECTID_1":110,"OBJECTID":183,"NOMBRE":"VIAJES GÉNESIS LTDA.","DIRECCION":"KR 66B   32D 85","ANEXO_DIR_":"","BARRIO":"","MUNICIPIO":"MEDELLIN","TELEFONO":"2656922","CATEGORIA":"AGENCIAS DE VIAJE"}},
{"type":"Feature","geometry":{"type":"Point","coordinates":[-75.56285218630411,6.249388565440979]},"properties":{"OBJECTID_1":111,"OBJECTID":184,"NOMBRE":"VIAJES JUPITER","DIRECCION":"CL 53   43 49","ANEXO_DIR_":"","BARRIO":"","MUNICIPIO":"MEDELLIN","TELEFONO":"2171994","CATEGORIA":"AGENCIAS DE VIAJE"}},
{"type":"Feature","geometry":{"type":"Point","coordinates":[-75.58984828325302,6.247066433518248]},"properties":{"OBJECTID_1":112,"OBJECTID":185,"NOMBRE":"VIAJES LAURELES","DIRECCION":"CC 5   70 91","ANEXO_DIR_":"","BARRIO":"Laureles","MUNICIPIO":"MEDELLIN","TELEFONO":"4111865","CATEGORIA":"AGENCIAS DE VIAJE"}},
{"type":"Feature","geometry":{"type":"Point","coordinates":[-75.58489291278674,6.257262125651999]},"properties":{"OBJECTID_1":113,"OBJECTID":186,"NOMBRE":"VIAJES MOLITUR S.A","DIRECCION":"CL 49B   68 18","ANEXO_DIR_":"","BARRIO":"","MUNICIPIO":"MEDELLIN","TELEFONO":"2602000","CATEGORIA":"AGENCIAS DE VIAJE"}},
{"type":"Feature","geometry":{"type":"Point","coordinates":[-75.56308836939611,6.2519018673375655]},"properties":{"OBJECTID_1":114,"OBJECTID":187,"NOMBRE":"VIAJES NELLY TOUR","DIRECCION":"KR 46   54 66","ANEXO_DIR_":"Apto 1501","BARRIO":"","MUNICIPIO":"MEDELLIN","TELEFONO":"5119798","CATEGORIA":"AGENCIAS DE VIAJE"}},
{"type":"Feature","geometry":{"type":"Point","coordinates":[-75.56958522175901,6.209845696679137]},"properties":{"OBJECTID_1":115,"OBJECTID":188,"NOMBRE":"VIAJES ORGANESOFF","DIRECCION":"KR 42   9 24","ANEXO_DIR_":"Local 101","BARRIO":"","MUNICIPIO":"MEDELLIN","TELEFONO":"2684025","CATEGORIA":"AGENCIAS DE VIAJE"}},
{"type":"Feature","geometry":{"type":"Point","coordinates":[-75.56954989909147,6.250660257904782]},"properties":{"OBJECTID_1":116,"OBJECTID":189,"NOMBRE":"VIAJES PALOMARES","DIRECCION":"KR 52   50 33","ANEXO_DIR_":"","BARRIO":"","MUNICIPIO":"MEDELLIN","TELEFONO":"5116200","CATEGORIA":"AGENCIAS DE VIAJE"}},
{"type":"Feature","geometry":{"type":"Point","coordinates":[-75.56474125781601,6.25360550133926]},"properties":{"OBJECTID_1":117,"OBJECTID":190,"NOMBRE":"VIAJES ROCITUR LTDA.","DIRECCION":"KR 49   55 43","ANEXO_DIR_":"","BARRIO":"","MUNICIPIO":"MEDELLIN","TELEFONO":"5117381","CATEGORIA":"AGENCIAS DE VIAJE"}},
{"type":"Feature","geometry":{"type":"Point","coordinates":[-75.5720109036386,6.2110939243157075]},"properties":{"OBJECTID_1":118,"OBJECTID":191,"NOMBRE":"VIAJES SUR ANDINA","DIRECCION":"CL 10   43C 27","ANEXO_DIR_":"","BARRIO":"El Poblado","MUNICIPIO":"MEDELLIN","TELEFONO":"3114869","CATEGORIA":"AGENCIAS DE VIAJE"}},
{"type":"Feature","geometry":{"type":"Point","coordinates":[-75.5669609424517,6.210004692881077]},"properties":{"OBJECTID_1":119,"OBJECTID":192,"NOMBRE":"VIAJES TEQUENDAMA","DIRECCION":"CL 10 A   37 65","ANEXO_DIR_":"","BARRIO":"El Poblado","MUNICIPIO":"MEDELLIN","TELEFONO":"3114053","CATEGORIA":"AGENCIAS DE VIAJE"}},
{"type":"Feature","geometry":{"type":"Point","coordinates":[-75.5720109036386,6.2110939243157075]},"properties":{"OBJECTID_1":120,"OBJECTID":193,"NOMBRE":"VIAJES TURANDINA","DIRECCION":"CL 10   43C 27","ANEXO_DIR_":"","BARRIO":"El Poblado","MUNICIPIO":"MEDELLIN","TELEFONO":"2680379","CATEGORIA":"AGENCIAS DE VIAJE"}},
{"type":"Feature","geometry":{"type":"Point","coordinates":[-75.5625013776892,6.244712028358274]},"properties":{"OBJECTID_1":121,"OBJECTID":194,"NOMBRE":"VIAJES TURÍSTICOS YATOUR","DIRECCION":"CL 48   41 16","ANEXO_DIR_":"Oficina 101","BARRIO":"","MUNICIPIO":"MEDELLIN","TELEFONO":"2397662","CATEGORIA":"AGENCIAS DE VIAJE"}},
{"type":"Feature","geometry":{"type":"Point","coordinates":[-75.57157567824385,6.204327794614792]},"properties":{"OBJECTID_1":122,"OBJECTID":195,"NOMBRE":"VIAJES VELA LTDA.","DIRECCION":"KR 43A   1 85","ANEXO_DIR_":"Oficina 614","BARRIO":"El Poblado","MUNICIPIO":"MEDELLIN","TELEFONO":"3119114","CATEGORIA":"AGENCIAS DE VIAJE"}},
{"type":"Feature","geometry":{"type":"Point","coordinates":[-75.56717197234693,6.250650039782246]},"properties":{"OBJECTID_1":123,"OBJECTID":196,"NOMBRE":"VIAJES VERACRUZ","DIRECCION":"CL 52   49 96","ANEXO_DIR_":"","BARRIO":"Centro","MUNICIPIO":"MEDELLIN","TELEFONO":"5127558","CATEGORIA":"AGENCIAS DE VIAJE"}},
{"type":"Feature","geometry":{"type":"Point","coordinates":[-75.56708094464743,6.252011293362317]},"properties":{"OBJECTID_1":124,"OBJECTID":197,"NOMBRE":"VIAJES Y EXCURSIONES SOL DE ORIENTE","DIRECCION":"CL 52A   50 19","ANEXO_DIR_":"Oficina 432","BARRIO":"","MUNICIPIO":"MEDELLIN","TELEFONO":"5718442","CATEGORIA":"AGENCIAS DE VIAJE"}},
{"type":"Feature","geometry":{"type":"Point","coordinates":[-75.5606962794015,6.255660291052291]},"properties":{"OBJECTID_1":125,"OBJECTID":198,"NOMBRE":"VIAJES Y FIESTAS SAN AGUSTÍN","DIRECCION":"CL 60   45D 71","ANEXO_DIR_":"","BARRIO":"Prado Centro","MUNICIPIO":"MEDELLIN","TELEFONO":"2844955","CATEGORIA":"AGENCIAS DE VIAJE"}},
{"type":"Feature","geometry":{"type":"Point","coordinates":[-75.59715404173619,6.262486613661226]},"properties":{"OBJECTID_1":126,"OBJECTID":199,"NOMBRE":"VIAJES Y TURISMO SENDEROS LTDA.","DIRECCION":"KR 80   49A 71","ANEXO_DIR_":"","BARRIO":"","MUNICIPIO":"MEDELLIN","TELEFONO":"2647600","CATEGORIA":"AGENCIAS DE VIAJE"}},
{"type":"Feature","geometry":{"type":"Point","coordinates":[-75.56670236316148,6.249688696036163]},"properties":{"OBJECTID_1":127,"OBJECTID":201,"NOMBRE":"VILLADARES VILLA GABRIEL","DIRECCION":"CL 51   49 11","ANEXO_DIR_":"Oficina 714","BARRIO":"","MUNICIPIO":"MEDELLIN","TELEFONO":"5115170","CATEGORIA":"AGENCIAS DE VIAJE"}},
{"type":"Feature","geometry":{"type":"Point","coordinates":[-75.58348870998711,6.2579355809036805]},"properties":{"OBJECTID_1":128,"OBJECTID":202,"NOMBRE":"VILLATUR","DIRECCION":"KR 67B   51A 60","ANEXO_DIR_":"Oficina 202","BARRIO":"","MUNICIPIO":"MEDELLIN","TELEFONO":"2305266","CATEGORIA":"AGENCIAS DE VIAJE"}},
{"type":"Feature","geometry":{"type":"Point","coordinates":[-75.59230618722154,6.249437374626271]},"properties":{"OBJECTID_1":129,"OBJECTID":203,"NOMBRE":"VOLEMOS LTDA.","DIRECCION":"CL 44   73 31","ANEXO_DIR_":"","BARRIO":"","MUNICIPIO":"MEDELLIN","TELEFONO":"4110228","CATEGORIA":"AGENCIAS DE VIAJE"}},
{"type":"Feature","geometry":{"type":"Point","coordinates":[-75.563875104185,6.254809311475826]},"properties":{"OBJECTID_1":130,"OBJECTID":204,"NOMBRE":"AEROMEDELLÍN","DIRECCION":"KR 49   57 51","ANEXO_DIR_":"C.Cial Villanueva","BARRIO":"","MUNICIPIO":"MEDELLIN","TELEFONO":"5113100","CATEGORIA":"AGENCIAS DE VIAJE"}},
{"type":"Feature","geometry":{"type":"Point","coordinates":[-75.59629261711153,6.213831759244893]},"properties":{"OBJECTID_1":131,"OBJECTID":205,"NOMBRE":"AEROMEDELLÍN","DIRECCION":"DG  75B   2A 120","ANEXO_DIR_":"Plazoleta Las Américas","BARRIO":"","MUNICIPIO":"MEDELLIN","TELEFONO":"3418585","CATEGORIA":"AGENCIAS DE VIAJE"}},
{"type":"Feature","geometry":{"type":"Point","coordinates":[-75.56942734817973,6.245801490841353]},"properties":{"OBJECTID_1":132,"OBJECTID":206,"NOMBRE":"ABASTECEDOR MACRO","DIRECCION":"KR 50   45   15","ANEXO_DIR_":"","BARRIO":"","MUNICIPIO":"MEDELLIN","TELEFONO":"2 31 77 60","CATEGORIA":"ALMACENES MATERIALES EN GENERAL"}},
{"type":"Feature","geometry":{"type":"Point","coordinates":[-75.6056240138107,6.255561144786371]},"properties":{"OBJECTID_1":133,"OBJECTID":207,"NOMBRE":"ACABADOS FACHAPLAST","DIRECCION":"KR 90   45   85","ANEXO_DIR_":"","BARRIO":"","MUNICIPIO":"MEDELLIN","TELEFONO":"4 96 60 99","CATEGORIA":"ALMACENES MATERIALES EN GENERAL"}},
{"type":"Feature","geometry":{"type":"Point","coordinates":[-75.55435581455002,6.271169931439367]},"properties":{"OBJECTID_1":134,"OBJECTID":208,"NOMBRE":"ACABADOS NACIONALES","DIRECCION":"CL 78   44   86","ANEXO_DIR_":"","BARRIO":"","MUNICIPIO":"MEDELLIN","TELEFONO":"2 11 35 22","CATEGORIA":"ALMACENES MATERIALES EN GENERAL"}},
{"type":"Feature","geometry":{"type":"Point","coordinates":[-75.58988040654836,6.1969798340074735]},"properties":{"OBJECTID_1":135,"OBJECTID":209,"NOMBRE":"ACUACENTRO S.A","DIRECCION":"KR 52   12 SUR   64","ANEXO_DIR_":"","BARRIO":"","MUNICIPIO":"MEDELLIN","TELEFONO":"2 55 55 00","CATEGORIA":"ALMACENES MATERIALES EN GENERAL"}},
{"type":"Feature","geometry":{"type":"Point","coordinates":[-75.5696244265731,6.234629668761203]},"properties":{"OBJECTID_1":136,"OBJECTID":210,"NOMBRE":"AGREGADOS GARANTIZADOS DEL NORTE S.A","DIRECCION":"CL 34   43   66","ANEXO_DIR_":"Oficina 217","BARRIO":"","MUNICIPIO":"MEDELLIN","TELEFONO":"2 32 11 64","CATEGORIA":"ALMACENES MATERIALES EN GENERAL"}},
{"type":"Feature","geometry":{"type":"Point","coordinates":[-75.56668986972204,6.249360702834126]},"properties":{"OBJECTID_1":137,"OBJECTID":211,"NOMBRE":"AGROMINAS LTDA","DIRECCION":"KR 49   50   58","ANEXO_DIR_":"Oficina 405","BARRIO":"","MUNICIPIO":"MEDELLIN","TELEFONO":"2 31 60 82","CATEGORIA":"ALMACENES MATERIALES EN GENERAL"}},
{"type":"Feature","geometry":{"type":"Point","coordinates":[-75.58763634485011,6.2023971653278975]},"properties":{"OBJECTID_1":138,"OBJECTID":212,"NOMBRE":"ALFA","DIRECCION":"KR 52   7 SUR   116","ANEXO_DIR_":"","BARRIO":"","MUNICIPIO":"MEDELLIN","TELEFONO":"3 62 05 55","CATEGORIA":"ALMACENES MATERIALES EN GENERAL"}},
{"type":"Feature","geometry":{"type":"Point","coordinates":[-75.58332719003893,6.245717885104896]},"properties":{"OBJECTID_1":139,"OBJECTID":213,"NOMBRE":"ALFA","DIRECCION":"KR 64   42   97","ANEXO_DIR_":"","BARRIO":"","MUNICIPIO":"MEDELLIN","TELEFONO":"2 60 28 00","CATEGORIA":"ALMACENES MATERIALES EN GENERAL"}},
{"type":"Feature","geometry":{"type":"Point","coordinates":[-75.56862315493007,6.227286005139702]},"properties":{"OBJECTID_1":140,"OBJECTID":214,"NOMBRE":"ALHELI","DIRECCION":"KR 43   28   32","ANEXO_DIR_":"","BARRIO":"","MUNICIPIO":"MEDELLIN","TELEFONO":"2 32 11 71 - 2","CATEGORIA":"ALMACENES MATERIALES EN GENERAL"}},
{"type":"Feature","geometry":{"type":"Point","coordinates":[-75.57471181798863,6.214791652656546]},"properties":{"OBJECTID_1":141,"OBJECTID":215,"NOMBRE":"AMANCO","DIRECCION":"KR 46   14   48","ANEXO_DIR_":"","BARRIO":"","MUNICIPIO":"MEDELLIN","TELEFONO":"3 12 56 96","CATEGORIA":"ALMACENES MATERIALES EN GENERAL"}},
{"type":"Feature","geometry":{"type":"Point","coordinates":[-75.58269913436234,6.231889445354326]},"properties":{"OBJECTID_1":142,"OBJECTID":216,"NOMBRE":"ANTIOQUEÑA DE CALES","DIRECCION":"KR 65   30   64","ANEXO_DIR_":"","BARRIO":"","MUNICIPIO":"MEDELLIN","TELEFONO":"2 65 77 88","CATEGORIA":"ALMACENES MATERIALES EN GENERAL"}},
{"type":"Feature","geometry":{"type":"Point","coordinates":[-75.61373693954114,6.248379409674835]},"properties":{"OBJECTID_1":143,"OBJECTID":218,"NOMBRE":"ARENAS PARA CONCRETO FABIO J.","DIRECCION":"CL 35 D   91 B   15","ANEXO_DIR_":"","BARRIO":"","MUNICIPIO":"MEDELLIN","TELEFONO":"2 53 00 09","CATEGORIA":"ALMACENES MATERIALES EN GENERAL"}},
{"type":"Feature","geometry":{"type":"Point","coordinates":[-75.57494765723216,6.248293849125903]},"properties":{"OBJECTID_1":144,"OBJECTID":219,"NOMBRE":"ARMANDO MADERAS","DIRECCION":"CL 45 A   55   78","ANEXO_DIR_":"","BARRIO":"","MUNICIPIO":"MEDELLIN","TELEFONO":"5 12 04 81","CATEGORIA":"ALMACENES MATERIALES EN GENERAL"}},
{"type":"Feature","geometry":{"type":"Point","coordinates":[-75.57472015084397,6.247379204475627]},"properties":{"OBJECTID_1":145,"OBJECTID":221,"NOMBRE":"ASERRÍO PORVENIR","DIRECCION":"CL 45   55   66","ANEXO_DIR_":"","BARRIO":"","MUNICIPIO":"MEDELLIN","TELEFONO":"5 12 02 39","CATEGORIA":"ALMACENES MATERIALES EN GENERAL"}},
{"type":"Feature","geometry":{"type":"Point","coordinates":[-75.59754961781921,6.2727671702237435]},"properties":{"OBJECTID_1":146,"OBJECTID":222,"NOMBRE":"BALDOBLOQUE","DIRECCION":"CL 59   81   121","ANEXO_DIR_":"","BARRIO":"","MUNICIPIO":"MEDELLIN","TELEFONO":"2 64 13 24","CATEGORIA":"ALMACENES MATERIALES EN GENERAL"}},
{"type":"Feature","geometry":{"type":"Point","coordinates":[-75.58392694387412,6.2568095299582485]},"properties":{"OBJECTID_1":147,"OBJECTID":225,"NOMBRE":"BAZAR AMERICANO","DIRECCION":"CL 49 B    67 A   28","ANEXO_DIR_":"","BARRIO":"","MUNICIPIO":"MEDELLIN","TELEFONO":"4  36 52 41","CATEGORIA":"ALMACENES MATERIALES EN GENERAL"}},
{"type":"Feature","geometry":{"type":"Point","coordinates":[-75.5744153320452,6.252844757178577]},"properties":{"OBJECTID_1":148,"OBJECTID":226,"NOMBRE":"BAZAR AMERICANO","DIRECCION":"CL 50   56 B   86","ANEXO_DIR_":"","BARRIO":"","MUNICIPIO":"MEDELLIN","TELEFONO":"5 11 24 93","CATEGORIA":"ALMACENES MATERIALES EN GENERAL"}},
{"type":"Feature","geometry":{"type":"Point","coordinates":[-75.56232238754271,6.291956697659657]},"properties":{"OBJECTID_1":149,"OBJECTID":227,"NOMBRE":"BLOQUES GIRASOL LTDA","DIRECCION":"KR 52   98   39","ANEXO_DIR_":"","BARRIO":"","MUNICIPIO":"MEDELLIN","TELEFONO":"5 21 46 87","CATEGORIA":"ALMACENES MATERIALES EN GENERAL"}},
{"type":"Feature","geometry":{"type":"Point","coordinates":[-75.60131879339632,6.234144429453942]},"properties":{"OBJECTID_1":150,"OBJECTID":229,"NOMBRE":"CADEMAC S.A","DIRECCION":"CL 32   80 A   70","ANEXO_DIR_":"","BARRIO":"","MUNICIPIO":"MEDELLIN","TELEFONO":"4 10 07 30","CATEGORIA":"ALMACENES MATERIALES EN GENERAL"}},
{"type":"Feature","geometry":{"type":"Point","coordinates":[-75.57365740746485,6.250579887357911]},"properties":{"OBJECTID_1":151,"OBJECTID":231,"NOMBRE":"CEMENTO MAS CEMENTO","DIRECCION":"KR 56   48   84","ANEXO_DIR_":"","BARRIO":"","MUNICIPIO":"MEDELLIN","TELEFONO":"2 31 42 66","CATEGORIA":"ALMACENES MATERIALES EN GENERAL"}},
{"type":"Feature","geometry":{"type":"Point","coordinates":[-75.57946544261249,6.227091678280893]},"properties":{"OBJECTID_1":152,"OBJECTID":232,"NOMBRE":"CEMENTOS BOYACÁ S.A","DIRECCION":"CL 27 A   52   119","ANEXO_DIR_":"","BARRIO":"","MUNICIPIO":"MEDELLIN","TELEFONO":"2 35 95 74","CATEGORIA":"ALMACENES MATERIALES EN GENERAL"}},
{"type":"Feature","geometry":{"type":"Point","coordinates":[-75.56288880321578,6.252736641234037]},"properties":{"OBJECTID_1":153,"OBJECTID":233,"NOMBRE":"CEMENTOS DEL NARE S.A","DIRECCION":"KR 46   56   11","ANEXO_DIR_":"","BARRIO":"","MUNICIPIO":"MEDELLIN","TELEFONO":"2 51 33 51","CATEGORIA":"ALMACENES MATERIALES EN GENERAL"}},
{"type":"Feature","geometry":{"type":"Point","coordinates":[-75.56288880321578,6.252736641234037]},"properties":{"OBJECTID_1":154,"OBJECTID":234,"NOMBRE":"CEMENTOS EL CAIRO S.A","DIRECCION":"KR 46   56   11","ANEXO_DIR_":"Piso 13","BARRIO":"","MUNICIPIO":"MEDELLIN","TELEFONO":"2 51 00 25","CATEGORIA":"ALMACENES MATERIALES EN GENERAL"}},
{"type":"Feature","geometry":{"type":"Point","coordinates":[-75.56288880321578,6.252736641234037]},"properties":{"OBJECTID_1":155,"OBJECTID":235,"NOMBRE":"CEMETOS RIOCLARO S.A","DIRECCION":"KR 46   56   11","ANEXO_DIR_":"Piso 14","BARRIO":"","MUNICIPIO":"MEDELLIN","TELEFONO":"2 51 81 81","CATEGORIA":"ALMACENES MATERIALES EN GENERAL"}},
{"type":"Feature","geometry":{"type":"Point","coordinates":[-75.59557143420247,6.252650747561203]},"properties":{"OBJECTID_1":156,"OBJECTID":237,"NOMBRE":"CENITAR","DIRECCION":"KR 77 A   45 D   02","ANEXO_DIR_":"","BARRIO":"","MUNICIPIO":"MEDELLIN","TELEFONO":"4 12 52 00","CATEGORIA":"ALMACENES MATERIALES EN GENERAL"}},
{"type":"Feature","geometry":{"type":"Point","coordinates":[-75.58906256169381,6.199527641493656]},"properties":{"OBJECTID_1":157,"OBJECTID":238,"NOMBRE":"CENTRO CERÁMICO DEL SUR","DIRECCION":"KR 52   9 B SUR   45","ANEXO_DIR_":"","BARRIO":"","MUNICIPIO":"MEDELLIN","TELEFONO":"3 61 56 06","CATEGORIA":"ALMACENES MATERIALES EN GENERAL"}},
{"type":"Feature","geometry":{"type":"Point","coordinates":[-75.58659274946255,6.284442594081858]},"properties":{"OBJECTID_1":158,"OBJECTID":239,"NOMBRE":"CENTRO MAYAS","DIRECCION":"KR 85 A   79   68","ANEXO_DIR_":"","BARRIO":"","MUNICIPIO":"MEDELLIN","TELEFONO":"4 41 97 97","CATEGORIA":"ALMACENES MATERIALES EN GENERAL"}},
{"type":"Feature","geometry":{"type":"Point","coordinates":[-75.59576402442435,6.212052419023904]},"properties":{"OBJECTID_1":159,"OBJECTID":240,"NOMBRE":"CERÁMICA ITALIA","DIRECCION":"DG 75 B  1   66","ANEXO_DIR_":"Local 9","BARRIO":"","MUNICIPIO":"MEDELLIN","TELEFONO":"3 43 13 61","CATEGORIA":"ALMACENES MATERIALES EN GENERAL"}},
{"type":"Feature","geometry":{"type":"Point","coordinates":[-75.56542911802337,6.265884279299767]},"properties":{"OBJECTID_1":160,"OBJECTID":241,"NOMBRE":"COLORPIGMENQUÍN","DIRECCION":"KR 51 D   67 A   57","ANEXO_DIR_":"","BARRIO":"","MUNICIPIO":"MEDELLIN","TELEFONO":"2 33 25 21","CATEGORIA":"ALMACENES MATERIALES EN GENERAL"}},
{"type":"Feature","geometry":{"type":"Point","coordinates":[-75.58018416393801,6.230358594782337]},"properties":{"OBJECTID_1":161,"OBJECTID":243,"NOMBRE":"CONSTRUACERO LTDA","DIRECCION":"CL 29 C   55   25","ANEXO_DIR_":"","BARRIO":"","MUNICIPIO":"MEDELLIN","TELEFONO":"2 35 96 84 - 2","CATEGORIA":"ALMACENES MATERIALES EN GENERAL"}},
{"type":"Feature","geometry":{"type":"Point","coordinates":[-75.56855634820994,6.254757304128721]},"properties":{"OBJECTID_1":162,"OBJECTID":245,"NOMBRE":"CONSTRUCCIONES M YM","DIRECCION":"CL 55   52   31","ANEXO_DIR_":"","BARRIO":"","MUNICIPIO":"MEDELLIN","TELEFONO":"5 12 57 00","CATEGORIA":"ALMACENES MATERIALES EN GENERAL"}},
{"type":"Feature","geometry":{"type":"Point","coordinates":[-75.61985082545675,6.25566679223007]},"properties":{"OBJECTID_1":163,"OBJECTID":246,"NOMBRE":"CONSTRUENCHAPES LTDA","DIRECCION":"KR 105   42   20","ANEXO_DIR_":"","BARRIO":"","MUNICIPIO":"MEDELLIN","TELEFONO":"2 53 11 98","CATEGORIA":"ALMACENES MATERIALES EN GENERAL"}},
{"type":"Feature","geometry":{"type":"Point","coordinates":[-75.59457315923707,6.2304987363496425]},"properties":{"OBJECTID_1":164,"OBJECTID":247,"NOMBRE":"CONSTRUFERRETEROS","DIRECCION":"CL 29   74   26","ANEXO_DIR_":"","BARRIO":"","MUNICIPIO":"MEDELLIN","TELEFONO":"2 38 73 52","CATEGORIA":"ALMACENES MATERIALES EN GENERAL"}},
{"type":"Feature","geometry":{"type":"Point","coordinates":[-75.60289740198199,6.250596449984507]},"properties":{"OBJECTID_1":165,"OBJECTID":248,"NOMBRE":"CONSTRUGREIFF","DIRECCION":"CL 44   80   29","ANEXO_DIR_":"","BARRIO":"","MUNICIPIO":"MEDELLIN","TELEFONO":"4 11 42 22","CATEGORIA":"ALMACENES MATERIALES EN GENERAL"}},
{"type":"Feature","geometry":{"type":"Point","coordinates":[-75.56921609858477,6.245858178169235]},"properties":{"OBJECTID_1":166,"OBJECTID":249,"NOMBRE":"CONSTRUGREIFF","DIRECCION":"KR 50   45   28","ANEXO_DIR_":"","BARRIO":"","MUNICIPIO":"MEDELLIN","TELEFONO":"5 12 43 43","CATEGORIA":"ALMACENES MATERIALES EN GENERAL"}},
{"type":"Feature","geometry":{"type":"Point","coordinates":[-75.57292121830311,6.24965928691595]},"properties":{"OBJECTID_1":167,"OBJECTID":250,"NOMBRE":"CONSTRUGUAYAQUÍL","DIRECCION":"KR 55   48   18","ANEXO_DIR_":"","BARRIO":"","MUNICIPIO":"MEDELLIN","TELEFONO":"2 31 98 37","CATEGORIA":"ALMACENES MATERIALES EN GENERAL"}},
{"type":"Feature","geometry":{"type":"Point","coordinates":[-75.5936009523334,6.249093631334595]},"properties":{"OBJECTID_1":168,"OBJECTID":251,"NOMBRE":"CONSTRUPUNTO LTDA","DIRECCION":"KR 74   43   18","ANEXO_DIR_":"","BARRIO":"","MUNICIPIO":"MEDELLIN","TELEFONO":"2 50 44 45","CATEGORIA":"ALMACENES MATERIALES EN GENERAL"}},
{"type":"Feature","geometry":{"type":"Point","coordinates":[-75.60505366698959,6.251953210110635]},"properties":{"OBJECTID_1":169,"OBJECTID":252,"NOMBRE":"CONSTRURAPIDO","DIRECCION":"KR 86   44   97","ANEXO_DIR_":"","BARRIO":"","MUNICIPIO":"MEDELLIN","TELEFONO":"4 91 20 43","CATEGORIA":"ALMACENES MATERIALES EN GENERAL"}},
{"type":"Feature","geometry":{"type":"Point","coordinates":[-75.5850935991544,6.2017317395515255]},"properties":{"OBJECTID_1":170,"OBJECTID":253,"NOMBRE":"CONSTRUTUBOS S.A","DIRECCION":"CL 7 SUR   50 FF   93","ANEXO_DIR_":"","BARRIO":"","MUNICIPIO":"MEDELLIN","TELEFONO":"2 85 83 22","CATEGORIA":"ALMACENES MATERIALES EN GENERAL"}},
{"type":"Feature","geometry":{"type":"Point","coordinates":[-75.56842683100014,6.254918796602684]},"properties":{"OBJECTID_1":171,"OBJECTID":256,"NOMBRE":"D.W. GRIFOS Y ENCHAPES","DIRECCION":"CL 55   52   16","ANEXO_DIR_":"","BARRIO":"","MUNICIPIO":"MEDELLIN","TELEFONO":"2 31 14 61","CATEGORIA":"ALMACENES MATERIALES EN GENERAL"}},
{"type":"Feature","geometry":{"type":"Point","coordinates":[-75.56915744432999,6.2102003321492285]},"properties":{"OBJECTID_1":172,"OBJECTID":257,"NOMBRE":"DECOCERÁMICA","DIRECCION":"CL 10   41 A   08","ANEXO_DIR_":"","BARRIO":"","MUNICIPIO":"MEDELLIN","TELEFONO":"2 66 25 05","CATEGORIA":"ALMACENES MATERIALES EN GENERAL"}},
{"type":"Feature","geometry":{"type":"Point","coordinates":[-75.57049704433726,6.261436545396311]},"properties":{"OBJECTID_1":173,"OBJECTID":258,"NOMBRE":"DECORIMPLAST LTDA","DIRECCION":"CL 62   56   23","ANEXO_DIR_":"","BARRIO":"","MUNICIPIO":"MEDELLIN","TELEFONO":"5 13 55 82","CATEGORIA":"ALMACENES MATERIALES EN GENERAL"}},
{"type":"Feature","geometry":{"type":"Point","coordinates":[-75.58256842162889,6.252535760557938]},"properties":{"OBJECTID_1":174,"OBJECTID":259,"NOMBRE":"DEGRES LTDA","DIRECCION":"KR 65   46   80","ANEXO_DIR_":"","BARRIO":"","MUNICIPIO":"MEDELLIN","TELEFONO":"2 60 22 54","CATEGORIA":"ALMACENES MATERIALES EN GENERAL"}},
{"type":"Feature","geometry":{"type":"Point","coordinates":[-75.56934559934074,6.226811536765605]},"properties":{"OBJECTID_1":175,"OBJECTID":260,"NOMBRE":"DELTA","DIRECCION":"KR 43 A   28   32","ANEXO_DIR_":"","BARRIO":"","MUNICIPIO":"MEDELLIN","TELEFONO":"2 32 11 51","CATEGORIA":"ALMACENES MATERIALES EN GENERAL"}},
{"type":"Feature","geometry":{"type":"Point","coordinates":[-75.56702074297009,6.259833215004568]},"properties":{"OBJECTID_1":176,"OBJECTID":261,"NOMBRE":"DEMOLICIONES BETANCUR Y CÍA LTDA","DIRECCION":"CL 61   51 D  56","ANEXO_DIR_":"","BARRIO":"","MUNICIPIO":"MEDELLIN","TELEFONO":"2 33 33 34","CATEGORIA":"ALMACENES MATERIALES EN GENERAL"}},
{"type":"Feature","geometry":{"type":"Point","coordinates":[-75.56896829813529,6.256965664514221]},"properties":{"OBJECTID_1":177,"OBJECTID":262,"NOMBRE":"DEMOLICIONES CUNDINAMARCA","DIRECCION":"KR 53   57   57","ANEXO_DIR_":"","BARRIO":"","MUNICIPIO":"MEDELLIN","TELEFONO":"5 11 21 16","CATEGORIA":"ALMACENES MATERIALES EN GENERAL"}},
{"type":"Feature","geometry":{"type":"Point","coordinates":[-75.59322955812547,6.2312605793021225]},"properties":{"OBJECTID_1":178,"OBJECTID":264,"NOMBRE":"DEMOTEC","DIRECCION":"CL 30   72   65","ANEXO_DIR_":"","BARRIO":"","MUNICIPIO":"MEDELLIN","TELEFONO":"3 42 09 55","CATEGORIA":"ALMACENES MATERIALES EN GENERAL"}},
{"type":"Feature","geometry":{"type":"Point","coordinates":[-75.55581614190113,6.285864871923393]},"properties":{"OBJECTID_1":179,"OBJECTID":265,"NOMBRE":"DEPÓSITO ALVAREZ","DIRECCION":"CL 94   48   18","ANEXO_DIR_":"","BARRIO":"","MUNICIPIO":"MEDELLIN","TELEFONO":"2 36 01 29","CATEGORIA":"ALMACENES MATERIALES EN GENERAL"}},
{"type":"Feature","geometry":{"type":"Point","coordinates":[-75.55339089711963,6.2431666593698045]},"properties":{"OBJECTID_1":180,"OBJECTID":266,"NOMBRE":"DEPÓSITO BARCELONA","DIRECCION":"CL 52   31   66","ANEXO_DIR_":"","BARRIO":"","MUNICIPIO":"MEDELLIN","TELEFONO":"2 17 42 35","CATEGORIA":"ALMACENES MATERIALES EN GENERAL"}},
{"type":"Feature","geometry":{"type":"Point","coordinates":[-75.59171592666779,6.2840827317084855]},"properties":{"OBJECTID_1":181,"OBJECTID":267,"NOMBRE":"DEPÓSITO BELLO HORIZONTE","DIRECCION":"CL 77 C   88   61","ANEXO_DIR_":"","BARRIO":"","MUNICIPIO":"MEDELLIN","TELEFONO":"4 27 53 89","CATEGORIA":"ALMACENES MATERIALES EN GENERAL"}},
{"type":"Feature","geometry":{"type":"Point","coordinates":[-75.56869371416344,6.247814818103288]},"properties":{"OBJECTID_1":182,"OBJECTID":268,"NOMBRE":"DEPÓSITO BRASIL LTDA","DIRECCION":"KR 50   47   27","ANEXO_DIR_":"","BARRIO":"","MUNICIPIO":"MEDELLIN","TELEFONO":"2 77 10 61 - 2","CATEGORIA":"ALMACENES MATERIALES EN GENERAL"}},
{"type":"Feature","geometry":{"type":"Point","coordinates":[-75.5606687918124,6.275154032274021]},"properties":{"OBJECTID_1":183,"OBJECTID":269,"NOMBRE":"DEPÓSITO BRASILIA","DIRECCION":"KR 50 BB   81   15","ANEXO_DIR_":"","BARRIO":"","MUNICIPIO":"MEDELLIN","TELEFONO":"2 12 41 82","CATEGORIA":"ALMACENES MATERIALES EN GENERAL"}},
{"type":"Feature","geometry":{"type":"Point","coordinates":[-75.55163613513191,6.241437285303208]},"properties":{"OBJECTID_1":184,"OBJECTID":270,"NOMBRE":"DEPÓSITO CASA AMARILLA","DIRECCION":"KR 29   50   29","ANEXO_DIR_":"","BARRIO":"","MUNICIPIO":"MEDELLIN","TELEFONO":"2 69 34 65","CATEGORIA":"ALMACENES MATERIALES EN GENERAL"}},
{"type":"Feature","geometry":{"type":"Point","coordinates":[-75.55740641049229,6.284151676890072]},"properties":{"OBJECTID_1":185,"OBJECTID":272,"NOMBRE":"DEPÓSITO CONSTRUBREMEN","DIRECCION":"KR 49 B   92   80","ANEXO_DIR_":"","BARRIO":"","MUNICIPIO":"MEDELLIN","TELEFONO":"2 36 58 92","CATEGORIA":"ALMACENES MATERIALES EN GENERAL"}},
{"type":"Feature","geometry":{"type":"Point","coordinates":[-75.58762845292362,6.209048758758369]},"properties":{"OBJECTID_1":186,"OBJECTID":273,"NOMBRE":"DEPÓSITO CRISTO REY","DIRECCION":"KR 56   1 A   28","ANEXO_DIR_":"","BARRIO":"","MUNICIPIO":"MEDELLIN","TELEFONO":"2 55 01 21","CATEGORIA":"ALMACENES MATERIALES EN GENERAL"}},
{"type":"Feature","geometry":{"type":"Point","coordinates":[-75.55137797218136,6.259202977255859]},"properties":{"OBJECTID_1":187,"OBJECTID":274,"NOMBRE":"DEPÓSITO DABHE","DIRECCION":"CL 66 C   39 A   12","ANEXO_DIR_":"","BARRIO":"","MUNICIPIO":"MEDELLIN","TELEFONO":"2 54 32 24","CATEGORIA":"ALMACENES MATERIALES EN GENERAL"}},
{"type":"Feature","geometry":{"type":"Point","coordinates":[-75.55214115035005,6.272882202014911]},"properties":{"OBJECTID_1":188,"OBJECTID":275,"NOMBRE":"DEPÓSITO DE MATERIALES  ADA","DIRECCION":"KR 43   80   80","ANEXO_DIR_":"","BARRIO":"","MUNICIPIO":"MEDELLIN","TELEFONO":"4 14 19 14","CATEGORIA":"ALMACENES MATERIALES EN GENERAL"}},
{"type":"Feature","geometry":{"type":"Point","coordinates":[-75.54745792999807,6.271684103007737]},"properties":{"OBJECTID_1":189,"OBJECTID":276,"NOMBRE":"DEPÓSITO DE MATERIALES  ARGECON","DIRECCION":"KR 36 C   80   51","ANEXO_DIR_":"","BARRIO":"","MUNICIPIO":"MEDELLIN","TELEFONO":"2 63 32 16","CATEGORIA":"ALMACENES MATERIALES EN GENERAL"}},
{"type":"Feature","geometry":{"type":"Point","coordinates":[-75.5730448500179,6.275297790256908]},"properties":{"OBJECTID_1":190,"OBJECTID":277,"NOMBRE":"DEPÓSITO DE MATERIALES  CARIBE","DIRECCION":"KR 64 C   75 B   125","ANEXO_DIR_":"","BARRIO":"","MUNICIPIO":"MEDELLIN","TELEFONO":"4 41 70 16","CATEGORIA":"ALMACENES MATERIALES EN GENERAL"}},
{"type":"Feature","geometry":{"type":"Point","coordinates":[-75.57497806252242,6.248306117213688]},"properties":{"OBJECTID_1":191,"OBJECTID":278,"NOMBRE":"DEPÓSITO DE MATERIALES  SAN GABRIEL","DIRECCION":"CL 45 A   55   96","ANEXO_DIR_":"","BARRIO":"","MUNICIPIO":"MEDELLIN","TELEFONO":"5 12 02 85","CATEGORIA":"ALMACENES MATERIALES EN GENERAL"}},
{"type":"Feature","geometry":{"type":"Point","coordinates":[-75.55960685146475,6.2835833371511765]},"properties":{"OBJECTID_1":192,"OBJECTID":279,"NOMBRE":"DEPÓSITO DE MATERIALES ARANJUEZ","DIRECCION":"CL 92   50 B   20","ANEXO_DIR_":"","BARRIO":"","MUNICIPIO":"MEDELLIN","TELEFONO":"2 36 16 33","CATEGORIA":"ALMACENES MATERIALES EN GENERAL"}},
{"type":"Feature","geometry":{"type":"Point","coordinates":[-75.59299519782884,6.217417879602057]},"properties":{"OBJECTID_1":193,"OBJECTID":280,"NOMBRE":"DEPÓSITO DE MATERIALES CONSTRUTIENDA","DIRECCION":"KR 70   9 A  85","ANEXO_DIR_":"","BARRIO":"","MUNICIPIO":"MEDELLIN","TELEFONO":"3 41 48 17","CATEGORIA":"ALMACENES MATERIALES EN GENERAL"}},
{"type":"Feature","geometry":{"type":"Point","coordinates":[-75.5750492329772,6.28375255865972]},"properties":{"OBJECTID_1":194,"OBJECTID":281,"NOMBRE":"DEPÓSITO DE MATERIALES DON RAFA","DIRECCION":"KR 69   91 A   12","ANEXO_DIR_":"","BARRIO":"","MUNICIPIO":"MEDELLIN","TELEFONO":"4 41 28 36","CATEGORIA":"ALMACENES MATERIALES EN GENERAL"}},
{"type":"Feature","geometry":{"type":"Point","coordinates":[-75.5597726475528,6.263983219159769]},"properties":{"OBJECTID_1":195,"OBJECTID":282,"NOMBRE":"DEPÓSITO DE MATERIALES EL  VOLGA","DIRECCION":"KR 49   67   02","ANEXO_DIR_":"","BARRIO":"","MUNICIPIO":"MEDELLIN","TELEFONO":"2 11 18 57","CATEGORIA":"ALMACENES MATERIALES EN GENERAL"}},
{"type":"Feature","geometry":{"type":"Point","coordinates":[-75.6137341767298,6.258828449998981]},"properties":{"OBJECTID_1":196,"OBJECTID":284,"NOMBRE":"DEPÓSITO DE MATERIALES EL CLAVO","DIRECCION":"KR 99   47 E   27","ANEXO_DIR_":"","BARRIO":"","MUNICIPIO":"MEDELLIN","TELEFONO":"2 53 09 21","CATEGORIA":"ALMACENES MATERIALES EN GENERAL"}},
{"type":"Feature","geometry":{"type":"Point","coordinates":[-75.56568835298654,6.2753431989079855]},"properties":{"OBJECTID_1":197,"OBJECTID":286,"NOMBRE":"DEPÓSITO DE MATERIALES EL CORDOBES","DIRECCION":"KR 55   80 B   26","ANEXO_DIR_":"","BARRIO":"","MUNICIPIO":"MEDELLIN","TELEFONO":"2 11 24 55","CATEGORIA":"ALMACENES MATERIALES EN GENERAL"}},
{"type":"Feature","geometry":{"type":"Point","coordinates":[-75.60654600260996,6.251181510897315]},"properties":{"OBJECTID_1":198,"OBJECTID":290,"NOMBRE":"DEPÓSITO DE MATERIALES GILBERTO MORALES","DIRECCION":"CL 44   88   24","ANEXO_DIR_":"","BARRIO":"","MUNICIPIO":"MEDELLIN","TELEFONO":"2 53 73 42","CATEGORIA":"ALMACENES MATERIALES EN GENERAL"}},
{"type":"Feature","geometry":{"type":"Point","coordinates":[-75.57227037070207,6.293012888455027]},"properties":{"OBJECTID_1":199,"OBJECTID":291,"NOMBRE":"DEPÓSITO DE MATERIALES GONZALO GIRALDO","DIRECCION":"KR 69   97   44","ANEXO_DIR_":"","BARRIO":"","MUNICIPIO":"MEDELLIN","TELEFONO":"2 67 78 90","CATEGORIA":"ALMACENES MATERIALES EN GENERAL"}},
{"type":"Feature","geometry":{"type":"Point","coordinates":[-75.62070507268194,6.257323745209741]},"properties":{"OBJECTID_1":200,"OBJECTID":293,"NOMBRE":"DEPÓSITO DE MATERIALES HERYSEL","DIRECCION":"KR 107   44   54","ANEXO_DIR_":"","BARRIO":"","MUNICIPIO":"MEDELLIN","TELEFONO":"4 92 42 03","CATEGORIA":"ALMACENES MATERIALES EN GENERAL"}},
{"type":"Feature","geometry":{"type":"Point","coordinates":[-75.58196788501733,6.288244826278442]},"properties":{"OBJECTID_1":201,"OBJECTID":294,"NOMBRE":"DEPÓSITO DE MATERIALES J.A.C","DIRECCION":"KR 76   91 A   14","ANEXO_DIR_":"","BARRIO":"","MUNICIPIO":"MEDELLIN","TELEFONO":"4 41 41 31","CATEGORIA":"ALMACENES MATERIALES EN GENERAL"}},
{"type":"Feature","geometry":{"type":"Point","coordinates":[-75.58305282986066,6.293271466778481]},"properties":{"OBJECTID_1":202,"OBJECTID":295,"NOMBRE":"DEPÓSITO DE MATERIALES J.E","DIRECCION":"CL 95   79 A   08","ANEXO_DIR_":"","BARRIO":"","MUNICIPIO":"MEDELLIN","TELEFONO":"4 71 22 50","CATEGORIA":"ALMACENES MATERIALES EN GENERAL"}},
{"type":"Feature","geometry":{"type":"Point","coordinates":[-75.57555674827769,6.298275730471517]},"properties":{"OBJECTID_1":203,"OBJECTID":296,"NOMBRE":"DEPÓSITO DE MATERIALES LA 101","DIRECCION":"CL 101   73 A   115","ANEXO_DIR_":"","BARRIO":"","MUNICIPIO":"MEDELLIN","TELEFONO":"4 71 08 44","CATEGORIA":"ALMACENES MATERIALES EN GENERAL"}},
{"type":"Feature","geometry":{"type":"Point","coordinates":[-75.59566668158209,6.226964179659954]},"properties":{"OBJECTID_1":204,"OBJECTID":297,"NOMBRE":"DEPÓSITO DE MATERIALES LA 25","DIRECCION":"KR 75   25   08","ANEXO_DIR_":"","BARRIO":"","MUNICIPIO":"MEDELLIN","TELEFONO":"3 42 97 25","CATEGORIA":"ALMACENES MATERIALES EN GENERAL"}},
{"type":"Feature","geometry":{"type":"Point","coordinates":[-75.58892962003773,6.2490997284264544]},"properties":{"OBJECTID_1":205,"OBJECTID":298,"NOMBRE":"DEPÓSITO DE MATERIALES LA 44","DIRECCION":"CL 44   70   40","ANEXO_DIR_":"","BARRIO":"","MUNICIPIO":"MEDELLIN","TELEFONO":"2 50 59 25","CATEGORIA":"ALMACENES MATERIALES EN GENERAL"}},
{"type":"Feature","geometry":{"type":"Point","coordinates":[-75.59295753100838,6.227308968686821]},"properties":{"OBJECTID_1":206,"OBJECTID":299,"NOMBRE":"DEPÓSITO DE MATERIALES LA 72","DIRECCION":"KR 72   26   08","ANEXO_DIR_":"","BARRIO":"","MUNICIPIO":"MEDELLIN","TELEFONO":"3 41 43 56","CATEGORIA":"ALMACENES MATERIALES EN GENERAL"}},
{"type":"Feature","geometry":{"type":"Point","coordinates":[-75.5518721807255,6.274945874131877]},"properties":{"OBJECTID_1":207,"OBJECTID":300,"NOMBRE":"DEPÓSITO DE MATERIALES LA 83","DIRECCION":"CL 83   43   05","ANEXO_DIR_":"","BARRIO":"","MUNICIPIO":"MEDELLIN","TELEFONO":"2 12 61 94","CATEGORIA":"ALMACENES MATERIALES EN GENERAL"}},
{"type":"Feature","geometry":{"type":"Point","coordinates":[-75.54651675501856,6.280095263519542]},"properties":{"OBJECTID_1":208,"OBJECTID":301,"NOMBRE":"DEPÓSITO DE MATERIALES LA CIMA","DIRECCION":"KR 36   86 B   88","ANEXO_DIR_":"","BARRIO":"","MUNICIPIO":"MEDELLIN","TELEFONO":"2 63 16 67","CATEGORIA":"ALMACENES MATERIALES EN GENERAL"}},
{"type":"Feature","geometry":{"type":"Point","coordinates":[-75.5785741161047,6.30435770610662]},"properties":{"OBJECTID_1":209,"OBJECTID":303,"NOMBRE":"DEPÓSITO DE MATERIALES LA PISCINA","DIRECCION":"CL 104   80   25","ANEXO_DIR_":"","BARRIO":"","MUNICIPIO":"MEDELLIN","TELEFONO":"2 67 34 15","CATEGORIA":"ALMACENES MATERIALES EN GENERAL"}},
{"type":"Feature","geometry":{"type":"Point","coordinates":[-75.5756801220257,6.29433038423508]},"properties":{"OBJECTID_1":210,"OBJECTID":304,"NOMBRE":"DEPÓSITO DE MATERIALES LIBARDO BUSTAMANTE","DIRECCION":"KR  73   97   13","ANEXO_DIR_":"","BARRIO":"","MUNICIPIO":"MEDELLIN","TELEFONO":"2 37 12 75","CATEGORIA":"ALMACENES MATERIALES EN GENERAL"}},
{"type":"Feature","geometry":{"type":"Point","coordinates":[-75.6136119171092,6.258927188409091]},"properties":{"OBJECTID_1":211,"OBJECTID":305,"NOMBRE":"DEPÓSITO DE MATERIALES LOS CATÍOS","DIRECCION":"KR 99   47 E   39","ANEXO_DIR_":"","BARRIO":"","MUNICIPIO":"MEDELLIN","TELEFONO":"2 52 09 82","CATEGORIA":"ALMACENES MATERIALES EN GENERAL"}},
{"type":"Feature","geometry":{"type":"Point","coordinates":[-75.59882380792689,6.234131054053376]},"properties":{"OBJECTID_1":212,"OBJECTID":306,"NOMBRE":"DEPÓSITO DE MATERIALES LOS ONCE","DIRECCION":"KR 78 A   32 A   12","ANEXO_DIR_":"","BARRIO":"","MUNICIPIO":"MEDELLIN","TELEFONO":"2 56 01 46","CATEGORIA":"ALMACENES MATERIALES EN GENERAL"}},
{"type":"Feature","geometry":{"type":"Point","coordinates":[-75.56484015062628,6.277684464561403]},"properties":{"OBJECTID_1":213,"OBJECTID":308,"NOMBRE":"DEPÓSITO DE MATERIALES MORAVIA","DIRECCION":"KR 53 A   82 A   84","ANEXO_DIR_":"","BARRIO":"","MUNICIPIO":"MEDELLIN","TELEFONO":"2 63 74 57","CATEGORIA":"ALMACENES MATERIALES EN GENERAL"}},
{"type":"Feature","geometry":{"type":"Point","coordinates":[-75.58500097084185,6.22090535715624]},"properties":{"OBJECTID_1":214,"OBJECTID":310,"NOMBRE":"DEPÓSITO DE MATERIALES PALA Y CEMENTO","DIRECCION":"KR 65   16A   17","ANEXO_DIR_":"","BARRIO":"","MUNICIPIO":"MEDELLIN","TELEFONO":"2 65 71 30","CATEGORIA":"ALMACENES MATERIALES EN GENERAL"}},
{"type":"Feature","geometry":{"type":"Point","coordinates":[-75.55483583708879,6.2696751507408]},"properties":{"OBJECTID_1":215,"OBJECTID":311,"NOMBRE":"DEPÓSITO DE MATERIALES PARA CONSTRUCCION IGNACIO OSP","DIRECCION":"KR 45   76   26","ANEXO_DIR_":"","BARRIO":"","MUNICIPIO":"MEDELLIN","TELEFONO":"2 12 26 78","CATEGORIA":"ALMACENES MATERIALES EN GENERAL"}},
{"type":"Feature","geometry":{"type":"Point","coordinates":[-75.57310061288842,6.2492939077881156]},"properties":{"OBJECTID_1":216,"OBJECTID":312,"NOMBRE":"DEPÓSITO DE MATERIALES RIO FRÍO","DIRECCION":"KR 55   46   78","ANEXO_DIR_":"","BARRIO":"","MUNICIPIO":"MEDELLIN","TELEFONO":"5 12 04 11","CATEGORIA":"ALMACENES MATERIALES EN GENERAL"}},
{"type":"Feature","geometry":{"type":"Point","coordinates":[-75.6026978611349,6.21236434749618]},"properties":{"OBJECTID_1":217,"OBJECTID":313,"NOMBRE":"DEPÓSITO DE MATERIALES SAN BARTOLOMÉ","DIRECCION":"CL 2 B   79   09","ANEXO_DIR_":"","BARRIO":"","MUNICIPIO":"MEDELLIN","TELEFONO":"2 56 96 56","CATEGORIA":"ALMACENES MATERIALES EN GENERAL"}},
{"type":"Feature","geometry":{"type":"Point","coordinates":[-75.57225466117897,6.291331669942863]},"properties":{"OBJECTID_1":218,"OBJECTID":314,"NOMBRE":"DEPÓSITO DE MATERIALES SAN JUDAS","DIRECCION":"KR 68   96   13","ANEXO_DIR_":"","BARRIO":"","MUNICIPIO":"MEDELLIN","TELEFONO":"2 37 74 61","CATEGORIA":"ALMACENES MATERIALES EN GENERAL"}},
{"type":"Feature","geometry":{"type":"Point","coordinates":[-75.5909045157759,6.2840625747530305]},"properties":{"OBJECTID_1":219,"OBJECTID":315,"NOMBRE":"DEPÓSITO DE MATERIALES SANTANA","DIRECCION":"KR 87   77 CC   09","ANEXO_DIR_":"","BARRIO":"","MUNICIPIO":"MEDELLIN","TELEFONO":"2 34 30 01","CATEGORIA":"ALMACENES MATERIALES EN GENERAL"}},
{"type":"Feature","geometry":{"type":"Point","coordinates":[-75.59568080123782,6.231948953899979]},"properties":{"OBJECTID_1":220,"OBJECTID":316,"NOMBRE":"DEPÓSITO DE MATERIALES SERVICIO AL CONSTRUCTOR","DIRECCION":"CL 30 A   75   27","ANEXO_DIR_":"","BARRIO":"","MUNICIPIO":"MEDELLIN","TELEFONO":"2 38 74 00","CATEGORIA":"ALMACENES MATERIALES EN GENERAL"}},
{"type":"Feature","geometry":{"type":"Point","coordinates":[-75.54190927695514,6.29423609341552]},"properties":{"OBJECTID_1":221,"OBJECTID":317,"NOMBRE":"DEPÓSITO DE MATERIALES URIEL","DIRECCION":"KR 32   106 A   26","ANEXO_DIR_":"Local 001","BARRIO":"","MUNICIPIO":"MEDELLIN","TELEFONO":"5 72 04 98","CATEGORIA":"ALMACENES MATERIALES EN GENERAL"}},
{"type":"Feature","geometry":{"type":"Point","coordinates":[-75.60642606072697,6.250998689279223]},"properties":{"OBJECTID_1":222,"OBJECTID":318,"NOMBRE":"DEPÓSITO EL AMERICANO","DIRECCION":"CL 44   88   29","ANEXO_DIR_":"","BARRIO":"","MUNICIPIO":"MEDELLIN","TELEFONO":"2 53 65 10","CATEGORIA":"ALMACENES MATERIALES EN GENERAL"}},
{"type":"Feature","geometry":{"type":"Point","coordinates":[-75.55350523270188,6.277687055423794]},"properties":{"OBJECTID_1":223,"OBJECTID":319,"NOMBRE":"DEPÓSITO EL CACIQUE","DIRECCION":"KR 45   85   63","ANEXO_DIR_":"","BARRIO":"","MUNICIPIO":"MEDELLIN","TELEFONO":"2 12 13 89","CATEGORIA":"ALMACENES MATERIALES EN GENERAL"}},
{"type":"Feature","geometry":{"type":"Point","coordinates":[-75.58567742525369,6.224993619382293]},"properties":{"OBJECTID_1":224,"OBJECTID":321,"NOMBRE":"DEPÓSITO EL DIAMANTE","DIRECCION":"CL 24   65 E   04","ANEXO_DIR_":"","BARRIO":"","MUNICIPIO":"MEDELLIN","TELEFONO":"2 35 14 27","CATEGORIA":"ALMACENES MATERIALES EN GENERAL"}},
{"type":"Feature","geometry":{"type":"Point","coordinates":[-75.55567461186887,6.305765482398178]},"properties":{"OBJECTID_1":225,"OBJECTID":322,"NOMBRE":"DEPÓSITO EL DURUELO","DIRECCION":"KR 51 D   120   39","ANEXO_DIR_":"","BARRIO":"","MUNICIPIO":"MEDELLIN","TELEFONO":"4 61 66 60","CATEGORIA":"ALMACENES MATERIALES EN GENERAL"}},
{"type":"Feature","geometry":{"type":"Point","coordinates":[-75.57223806855278,6.211612051204932]},"properties":{"OBJECTID_1":226,"OBJECTID":323,"NOMBRE":"DEPÓSITO EL POBLADO Y CÍA","DIRECCION":"KR 43 D   10 46","ANEXO_DIR_":"","BARRIO":"","MUNICIPIO":"MEDELLIN","TELEFONO":"3 11 25 11","CATEGORIA":"ALMACENES MATERIALES EN GENERAL"}},
{"type":"Feature","geometry":{"type":"Point","coordinates":[-75.55047661897089,6.24935564660661]},"properties":{"OBJECTID_1":227,"OBJECTID":324,"NOMBRE":"DEPÓSITO ENCISO","DIRECCION":"KR 30   58   01","ANEXO_DIR_":"","BARRIO":"","MUNICIPIO":"MEDELLIN","TELEFONO":"2 84 46 42","CATEGORIA":"ALMACENES MATERIALES EN GENERAL"}},
{"type":"Feature","geometry":{"type":"Point","coordinates":[-75.58302742546137,6.228002726141972]},"properties":{"OBJECTID_1":228,"OBJECTID":325,"NOMBRE":"DEPÓSITO FUNDADORES","DIRECCION":"KR 65   27   06","ANEXO_DIR_":"","BARRIO":"","MUNICIPIO":"MEDELLIN","TELEFONO":"2 35 04 05","CATEGORIA":"ALMACENES MATERIALES EN GENERAL"}},
{"type":"Feature","geometry":{"type":"Point","coordinates":[-75.54190927695514,6.29423609341552]},"properties":{"OBJECTID_1":229,"OBJECTID":326,"NOMBRE":"DEPÓSITO GIRASOL","DIRECCION":"KR 32   106 A   32","ANEXO_DIR_":"","BARRIO":"","MUNICIPIO":"MEDELLIN","TELEFONO":"5 72 03 41","CATEGORIA":"ALMACENES MATERIALES EN GENERAL"}},
{"type":"Feature","geometry":{"type":"Point","coordinates":[-75.53663283594406,6.231189006997477]},"properties":{"OBJECTID_1":230,"OBJECTID":329,"NOMBRE":"DEPÓSITO J.M","DIRECCION":"CL 49 A   6 A   42","ANEXO_DIR_":"","BARRIO":"","MUNICIPIO":"MEDELLIN","TELEFONO":"2 21 46 45","CATEGORIA":"ALMACENES MATERIALES EN GENERAL"}},
{"type":"Feature","geometry":{"type":"Point","coordinates":[-75.59699906486452,6.231362834771024]},"properties":{"OBJECTID_1":231,"OBJECTID":330,"NOMBRE":"DEPÓSITO JARAMILLO","DIRECCION":"KR 77   30   36","ANEXO_DIR_":"","BARRIO":"","MUNICIPIO":"MEDELLIN","TELEFONO":"2 38 62 26","CATEGORIA":"ALMACENES MATERIALES EN GENERAL"}},
{"type":"Feature","geometry":{"type":"Point","coordinates":[-75.58329403986143,6.283274084718168]},"properties":{"OBJECTID_1":232,"OBJECTID":331,"NOMBRE":"DEPÓSITO KENNEDY","DIRECCION":"DG 80   79 C   95","ANEXO_DIR_":"","BARRIO":"","MUNICIPIO":"MEDELLIN","TELEFONO":"2 57 06 43","CATEGORIA":"ALMACENES MATERIALES EN GENERAL"}},
{"type":"Feature","geometry":{"type":"Point","coordinates":[-75.56405767122932,6.208131024842156]},"properties":{"OBJECTID_1":233,"OBJECTID":332,"NOMBRE":"DEPÓSITO LA 10","DIRECCION":"KR 32 D   9   26","ANEXO_DIR_":"","BARRIO":"","MUNICIPIO":"MEDELLIN","TELEFONO":"3 11 82 66","CATEGORIA":"ALMACENES MATERIALES EN GENERAL"}},
{"type":"Feature","geometry":{"type":"Point","coordinates":[-75.56840799901683,6.242818766972431]},"properties":{"OBJECTID_1":234,"OBJECTID":335,"NOMBRE":"DEPÓSITO LA 43","DIRECCION":"CL 43   45   25","ANEXO_DIR_":"","BARRIO":"","MUNICIPIO":"MEDELLIN","TELEFONO":"3 81 35 30","CATEGORIA":"ALMACENES MATERIALES EN GENERAL"}},
{"type":"Feature","geometry":{"type":"Point","coordinates":[-75.57917194562718,6.288098508398813]},"properties":{"OBJECTID_1":235,"OBJECTID":336,"NOMBRE":"DEPÓSITO LA 92","DIRECCION":"KR 74   91   130","ANEXO_DIR_":"","BARRIO":"","MUNICIPIO":"MEDELLIN","TELEFONO":"4 41 33 53","CATEGORIA":"ALMACENES MATERIALES EN GENERAL"}},
{"type":"Feature","geometry":{"type":"Point","coordinates":[-75.58051676442112,6.295274333072825]},"properties":{"OBJECTID_1":236,"OBJECTID":337,"NOMBRE":"DEPÓSITO LA 97","DIRECCION":"CL 97   76   60","ANEXO_DIR_":"","BARRIO":"","MUNICIPIO":"MEDELLIN","TELEFONO":"2 37 43 49","CATEGORIA":"ALMACENES MATERIALES EN GENERAL"}},
{"type":"Feature","geometry":{"type":"Point","coordinates":[-75.60030439436281,6.23963487815335]},"properties":{"OBJECTID_1":237,"OBJECTID":339,"NOMBRE":"DEPÓSITO LA CASTELLANA","DIRECCION":"KR 80   33 A   20","ANEXO_DIR_":"","BARRIO":"","MUNICIPIO":"MEDELLIN","TELEFONO":"2 50 02 59","CATEGORIA":"ALMACENES MATERIALES EN GENERAL"}},
{"type":"Feature","geometry":{"type":"Point","coordinates":[-75.55549725219633,6.249867587052316]},"properties":{"OBJECTID_1":238,"OBJECTID":340,"NOMBRE":"DEPÓSITO LA DIANA","DIRECCION":"CL 58   37   18","ANEXO_DIR_":"","BARRIO":"","MUNICIPIO":"MEDELLIN","TELEFONO":"2 84 42 06","CATEGORIA":"ALMACENES MATERIALES EN GENERAL"}},
{"type":"Feature","geometry":{"type":"Point","coordinates":[-75.56707452631582,6.298180999937519]},"properties":{"OBJECTID_1":239,"OBJECTID":341,"NOMBRE":"DEPÓSITO LA FERIA","DIRECCION":"KR 65   103 D   02","ANEXO_DIR_":"","BARRIO":"","MUNICIPIO":"MEDELLIN","TELEFONO":"2 67 50 45","CATEGORIA":"ALMACENES MATERIALES EN GENERAL"}},
{"type":"Feature","geometry":{"type":"Point","coordinates":[-75.5812675814731,6.2507216632404266]},"properties":{"OBJECTID_1":240,"OBJECTID":342,"NOMBRE":"DEPÓSITO LA MACARENA","DIRECCION":"CL 45 A   63 A   07","ANEXO_DIR_":"","BARRIO":"","MUNICIPIO":"MEDELLIN","TELEFONO":"2 30 44 66","CATEGORIA":"ALMACENES MATERIALES EN GENERAL"}},
{"type":"Feature","geometry":{"type":"Point","coordinates":[-75.54894276592425,6.272049903996191]},"properties":{"OBJECTID_1":241,"OBJECTID":343,"NOMBRE":"DEPÓSITO LA MONTAÑA","DIRECCION":"KR 39   80   102","ANEXO_DIR_":"","BARRIO":"","MUNICIPIO":"MEDELLIN","TELEFONO":"2 12 23 54","CATEGORIA":"ALMACENES MATERIALES EN GENERAL"}},
{"type":"Feature","geometry":{"type":"Point","coordinates":[-75.61325175808342,6.259864065501653]},"properties":{"OBJECTID_1":242,"OBJECTID":345,"NOMBRE":"DEPÓSITO LA PRADERA","DIRECCION":"KR 99   48 A   93","ANEXO_DIR_":"","BARRIO":"","MUNICIPIO":"MEDELLIN","TELEFONO":"2 64 30 03","CATEGORIA":"ALMACENES MATERIALES EN GENERAL"}},
{"type":"Feature","geometry":{"type":"Point","coordinates":[-75.5904100522084,6.195619099648144]},"properties":{"OBJECTID_1":243,"OBJECTID":346,"NOMBRE":"DEPÓSITO LAS DELICIAS","DIRECCION":"CL 13 SUR   51 C   66","ANEXO_DIR_":"","BARRIO":"","MUNICIPIO":"MEDELLIN","TELEFONO":"2 55 07 92","CATEGORIA":"ALMACENES MATERIALES EN GENERAL"}},
{"type":"Feature","geometry":{"type":"Point","coordinates":[-75.60654539501238,6.2336286229971005]},"properties":{"OBJECTID_1":244,"OBJECTID":347,"NOMBRE":"DEPÓSITO LAS MERCEDES","DIRECCION":"CL 32   83   15","ANEXO_DIR_":"","BARRIO":"","MUNICIPIO":"MEDELLIN","TELEFONO":"2 38 81 96","CATEGORIA":"ALMACENES MATERIALES EN GENERAL"}},
{"type":"Feature","geometry":{"type":"Point","coordinates":[-75.5970825253096,6.2256240455266765]},"properties":{"OBJECTID_1":245,"OBJECTID":350,"NOMBRE":"DEPÓSITO MALTECO LTDA","DIRECCION":"KR 76   21 A   29","ANEXO_DIR_":"","BARRIO":"","MUNICIPIO":"MEDELLIN","TELEFONO":"3 43 21 55","CATEGORIA":"ALMACENES MATERIALES EN GENERAL"}},
{"type":"Feature","geometry":{"type":"Point","coordinates":[-75.55545954657487,6.263889308704035]},"properties":{"OBJECTID_1":246,"OBJECTID":351,"NOMBRE":"DEPÓSITO MANRIQUE","DIRECCION":"KR 45   68   10","ANEXO_DIR_":"","BARRIO":"","MUNICIPIO":"MEDELLIN","TELEFONO":"2 12 65 36","CATEGORIA":"ALMACENES MATERIALES EN GENERAL"}},
{"type":"Feature","geometry":{"type":"Point","coordinates":[-75.56822313340528,6.25505153782021]},"properties":{"OBJECTID_1":247,"OBJECTID":352,"NOMBRE":"DEPÓSITO METROPOL","DIRECCION":"KR 52   55   23","ANEXO_DIR_":"","BARRIO":"","MUNICIPIO":"MEDELLIN","TELEFONO":"5 11 30 45","CATEGORIA":"ALMACENES MATERIALES EN GENERAL"}},
{"type":"Feature","geometry":{"type":"Point","coordinates":[-75.62091154836446,6.245459973382047]},"properties":{"OBJECTID_1":248,"OBJECTID":353,"NOMBRE":"DEPÓSITO MI FAROL BELENCITO","DIRECCION":"KR 105 B   34 B   15","ANEXO_DIR_":"","BARRIO":"","MUNICIPIO":"MEDELLIN","TELEFONO":"2 52 33 75","CATEGORIA":"ALMACENES MATERIALES EN GENERAL"}},
{"type":"Feature","geometry":{"type":"Point","coordinates":[-75.53733043139046,6.233055958700444]},"properties":{"OBJECTID_1":249,"OBJECTID":354,"NOMBRE":"DEPÓSITO MI TACITA","DIRECCION":"CL 52   9   10","ANEXO_DIR_":"","BARRIO":"","MUNICIPIO":"MEDELLIN","TELEFONO":"2 26 02 19","CATEGORIA":"ALMACENES MATERIALES EN GENERAL"}},
{"type":"Feature","geometry":{"type":"Point","coordinates":[-75.59723724422321,6.224256139889344]},"properties":{"OBJECTID_1":250,"OBJECTID":355,"NOMBRE":"DEPÓSITO MONTREAL","DIRECCION":"CL 20   75 A   29","ANEXO_DIR_":"","BARRIO":"","MUNICIPIO":"MEDELLIN","TELEFONO":"3 43 21 55","CATEGORIA":"ALMACENES MATERIALES EN GENERAL"}},
{"type":"Feature","geometry":{"type":"Point","coordinates":[-75.56787790111714,6.259796776408905]},"properties":{"OBJECTID_1":251,"OBJECTID":356,"NOMBRE":"DEPÓSITO MOORE","DIRECCION":"CL 61   52   59","ANEXO_DIR_":"","BARRIO":"","MUNICIPIO":"MEDELLIN","TELEFONO":"5 11 17 07","CATEGORIA":"ALMACENES MATERIALES EN GENERAL"}},
{"type":"Feature","geometry":{"type":"Point","coordinates":[-75.57481626872739,6.247515968392325]},"properties":{"OBJECTID_1":252,"OBJECTID":357,"NOMBRE":"DEPÓSITO MULTIMADERAS","DIRECCION":"CL 45   55   34","ANEXO_DIR_":"","BARRIO":"","MUNICIPIO":"MEDELLIN","TELEFONO":"5 11 57 22","CATEGORIA":"ALMACENES MATERIALES EN GENERAL"}},
{"type":"Feature","geometry":{"type":"Point","coordinates":[-75.56378208844971,6.2657676525787735]},"properties":{"OBJECTID_1":253,"OBJECTID":358,"NOMBRE":"DEPÓSITO MUNDIAL","DIRECCION":"CL 68   51 A   27","ANEXO_DIR_":"","BARRIO":"","MUNICIPIO":"MEDELLIN","TELEFONO":"2 12 69 48","CATEGORIA":"ALMACENES MATERIALES EN GENERAL"}},
{"type":"Feature","geometry":{"type":"Point","coordinates":[-75.57515268625103,6.284466596062433]},"properties":{"OBJECTID_1":254,"OBJECTID":359,"NOMBRE":"DEPÓSITO ORLANDO VANEGAS","DIRECCION":"KR 69   92   30","ANEXO_DIR_":"","BARRIO":"","MUNICIPIO":"MEDELLIN","TELEFONO":"2 57 42 25","CATEGORIA":"ALMACENES MATERIALES EN GENERAL"}},
{"type":"Feature","geometry":{"type":"Point","coordinates":[-75.57296781328702,6.249338840688871]},"properties":{"OBJECTID_1":255,"OBJECTID":360,"NOMBRE":"DEPÓSITO PICHINCHA","DIRECCION":"CL 48   54   65","ANEXO_DIR_":"","BARRIO":"","MUNICIPIO":"MEDELLIN","TELEFONO":"5 12 04 46","CATEGORIA":"ALMACENES MATERIALES EN GENERAL"}},
{"type":"Feature","geometry":{"type":"Point","coordinates":[-75.58155404351348,6.250196168265864]},"properties":{"OBJECTID_1":256,"OBJECTID":361,"NOMBRE":"DEPÓSITO PLAYA BLANCA","DIRECCION":"KR 63 A   45   05","ANEXO_DIR_":"","BARRIO":"","MUNICIPIO":"MEDELLIN","TELEFONO":"2 30 14 87","CATEGORIA":"ALMACENES MATERIALES EN GENERAL"}},
{"type":"Feature","geometry":{"type":"Point","coordinates":[-75.59567116067014,6.273509669625316]},"properties":{"OBJECTID_1":257,"OBJECTID":362,"NOMBRE":"DEPÓSITO ROBLEDAL","DIRECCION":"CL 63   80 A   115","ANEXO_DIR_":"Local 108","BARRIO":"","MUNICIPIO":"MEDELLIN","TELEFONO":"4 21 41 77","CATEGORIA":"ALMACENES MATERIALES EN GENERAL"}},
{"type":"Feature","geometry":{"type":"Point","coordinates":[-75.5679020739444,6.305776259932668]},"properties":{"OBJECTID_1":258,"OBJECTID":364,"NOMBRE":"DEPÓSITO SAN AGUSTÍN","DIRECCION":"KR 68 A   108   16","ANEXO_DIR_":"","BARRIO":"","MUNICIPIO":"MEDELLIN","TELEFONO":"2 73 39 06","CATEGORIA":"ALMACENES MATERIALES EN GENERAL"}},
{"type":"Feature","geometry":{"type":"Point","coordinates":[-75.57547452582708,6.24919854020537]},"properties":{"OBJECTID_1":259,"OBJECTID":369,"NOMBRE":"DEPÓSITO SANTA ISABEL","DIRECCION":"CL 46   57   70","ANEXO_DIR_":"","BARRIO":"","MUNICIPIO":"MEDELLIN","TELEFONO":"5 11 53 23","CATEGORIA":"ALMACENES MATERIALES EN GENERAL"}},
{"type":"Feature","geometry":{"type":"Point","coordinates":[-75.57227823620079,6.3095539064686745]},"properties":{"OBJECTID_1":260,"OBJECTID":370,"NOMBRE":"DEPÓSITO SANTANDER","DIRECCION":"KR 76 C   112 A   02","ANEXO_DIR_":"","BARRIO":"","MUNICIPIO":"MEDELLIN","TELEFONO":"4 61 97 00","CATEGORIA":"ALMACENES MATERIALES EN GENERAL"}},
{"type":"Feature","geometry":{"type":"Point","coordinates":[-75.58549900140645,6.205849929972011]},"properties":{"OBJECTID_1":261,"OBJECTID":371,"NOMBRE":"DEPÓSITO TRINIDAD","DIRECCION":"KR 51 B   2 SUR   20","ANEXO_DIR_":"","BARRIO":"","MUNICIPIO":"MEDELLIN","TELEFONO":"2 85 40 22","CATEGORIA":"ALMACENES MATERIALES EN GENERAL"}},
{"type":"Feature","geometry":{"type":"Point","coordinates":[-75.56729689503993,6.307246297278639]},"properties":{"OBJECTID_1":262,"OBJECTID":372,"NOMBRE":"DEPÓSITO TROPICANA","DIRECCION":"KR 68 A   111   28","ANEXO_DIR_":"","BARRIO":"","MUNICIPIO":"MEDELLIN","TELEFONO":"2 73 76 78","CATEGORIA":"ALMACENES MATERIALES EN GENERAL"}},
{"type":"Feature","geometry":{"type":"Point","coordinates":[-75.56007921485302,6.26207159488841]},"properties":{"OBJECTID_1":263,"OBJECTID":374,"NOMBRE":"DEPÓSITO VENEZUELA","DIRECCION":"KR 49   65 F   06","ANEXO_DIR_":"","BARRIO":"","MUNICIPIO":"MEDELLIN","TELEFONO":"2 33 60 07","CATEGORIA":"ALMACENES MATERIALES EN GENERAL"}},
{"type":"Feature","geometry":{"type":"Point","coordinates":[-75.55417041188888,6.256643289643041]},"properties":{"OBJECTID_1":264,"OBJECTID":375,"NOMBRE":"DEPÓSITO VILLA HERMOSA","DIRECCION":"KR 40   64   51","ANEXO_DIR_":"","BARRIO":"","MUNICIPIO":"MEDELLIN","TELEFONO":"2 54 51 41","CATEGORIA":"ALMACENES MATERIALES EN GENERAL"}},
{"type":"Feature","geometry":{"type":"Point","coordinates":[-75.60550616933057,6.23100401258366]},"properties":{"OBJECTID_1":265,"OBJECTID":377,"NOMBRE":"DEPÓSITO Y FERRETERIA AVENIDA","DIRECCION":"CL 30   82 C   38","ANEXO_DIR_":"","BARRIO":"","MUNICIPIO":"MEDELLIN","TELEFONO":"2 56 05 77","CATEGORIA":"ALMACENES MATERIALES EN GENERAL"}},
{"type":"Feature","geometry":{"type":"Point","coordinates":[-75.5548263911166,6.232647313454873]},"properties":{"OBJECTID_1":266,"OBJECTID":378,"NOMBRE":"DEPÓSITO Y FERRETERIA AVILA","DIRECCION":"CL 39   26 EE  29","ANEXO_DIR_":"","BARRIO":"","MUNICIPIO":"MEDELLIN","TELEFONO":"2 21 95 52","CATEGORIA":"ALMACENES MATERIALES EN GENERAL"}},
{"type":"Feature","geometry":{"type":"Point","coordinates":[-75.59277001508525,6.291764544747231]},"properties":{"OBJECTID_1":267,"OBJECTID":379,"NOMBRE":"DEPÓSITO Y FERRETERIA C.M","DIRECCION":"KR 94   80   30","ANEXO_DIR_":"","BARRIO":"","MUNICIPIO":"MEDELLIN","TELEFONO":"4 42 07 07","CATEGORIA":"ALMACENES MATERIALES EN GENERAL"}},
{"type":"Feature","geometry":{"type":"Point","coordinates":[-75.5981709612861,6.231331915103656]},"properties":{"OBJECTID_1":268,"OBJECTID":381,"NOMBRE":"DEPÓSITO Y FERRETERIA CONSTRUTRENTA","DIRECCION":"CL 30   77   72","ANEXO_DIR_":"","BARRIO":"","MUNICIPIO":"MEDELLIN","TELEFONO":"2 56 08 85","CATEGORIA":"ALMACENES MATERIALES EN GENERAL"}},
{"type":"Feature","geometry":{"type":"Point","coordinates":[-75.59122800984544,6.284858577275294]},"properties":{"OBJECTID_1":269,"OBJECTID":383,"NOMBRE":"DEPÓSITO Y FERRETERIA EL PERCAL","DIRECCION":"KR 88   77 CC  16","ANEXO_DIR_":"","BARRIO":"","MUNICIPIO":"MEDELLIN","TELEFONO":"2 64 24 30","CATEGORIA":"ALMACENES MATERIALES EN GENERAL"}},
{"type":"Feature","geometry":{"type":"Point","coordinates":[-75.55321767050478,6.247658052265458]},"properties":{"OBJECTID_1":270,"OBJECTID":384,"NOMBRE":"DEPÓSITO Y FERRETERIA EL SURTIDOR","DIRECCION":"CL 57 B   34   39","ANEXO_DIR_":"","BARRIO":"","MUNICIPIO":"MEDELLIN","TELEFONO":"2 16 84 90","CATEGORIA":"ALMACENES MATERIALES EN GENERAL"}},
{"type":"Feature","geometry":{"type":"Point","coordinates":[-75.6129066467711,6.233145778537344]},"properties":{"OBJECTID_1":271,"OBJECTID":385,"NOMBRE":"DEPÓSITO Y FERRETERIA FERROVIOLETAS","DIRECCION":"KR 89   31   22","ANEXO_DIR_":"","BARRIO":"","MUNICIPIO":"MEDELLIN","TELEFONO":"2 56 47 22","CATEGORIA":"ALMACENES MATERIALES EN GENERAL"}},
{"type":"Feature","geometry":{"type":"Point","coordinates":[-75.56632648363438,6.27409382727561]},"properties":{"OBJECTID_1":272,"OBJECTID":386,"NOMBRE":"DEPÓSITO Y FERRETERIA L.H.M","DIRECCION":"CL 79   54 BB   23","ANEXO_DIR_":"","BARRIO":"","MUNICIPIO":"MEDELLIN","TELEFONO":"2 63 14 86","CATEGORIA":"ALMACENES MATERIALES EN GENERAL"}},
{"type":"Feature","geometry":{"type":"Point","coordinates":[-75.54623697462354,6.30275432701971]},"properties":{"OBJECTID_1":273,"OBJECTID":387,"NOMBRE":"DEPÓSITO Y FERRETERIA LA 42","DIRECCION":"CL 120   42 D   47","ANEXO_DIR_":"","BARRIO":"","MUNICIPIO":"MEDELLIN","TELEFONO":"5 28 13 01","CATEGORIA":"ALMACENES MATERIALES EN GENERAL"}},
{"type":"Feature","geometry":{"type":"Point","coordinates":[-75.55633641314863,6.290849149465982]},"properties":{"OBJECTID_1":274,"OBJECTID":388,"NOMBRE":"DEPÓSITO Y FERRETERIA LA 99","DIRECCION":"KR 49   98 A   30","ANEXO_DIR_":"","BARRIO":"","MUNICIPIO":"MEDELLIN","TELEFONO":"5 21 29 88","CATEGORIA":"ALMACENES MATERIALES EN GENERAL"}},
{"type":"Feature","geometry":{"type":"Point","coordinates":[-75.59629130970104,6.274291826247311]},"properties":{"OBJECTID_1":275,"OBJECTID":391,"NOMBRE":"DEPÓSITO Y FERRETERIA LA MANGUITA","DIRECCION":"KR 84 B    63   30","ANEXO_DIR_":"","BARRIO":"","MUNICIPIO":"MEDELLIN","TELEFONO":"4 21 28 33","CATEGORIA":"ALMACENES MATERIALES EN GENERAL"}},
{"type":"Feature","geometry":{"type":"Point","coordinates":[-75.57307333464549,6.255673209115667]},"properties":{"OBJECTID_1":276,"OBJECTID":392,"NOMBRE":"DEPÓSITO Y FERRETERIA LA MINORISTA","DIRECCION":"KR 56 C   54   38","ANEXO_DIR_":"","BARRIO":"","MUNICIPIO":"MEDELLIN","TELEFONO":"5 14 37 94","CATEGORIA":"ALMACENES MATERIALES EN GENERAL"}},
{"type":"Feature","geometry":{"type":"Point","coordinates":[-75.59943143519584,6.2789896642542]},"properties":{"OBJECTID_1":277,"OBJECTID":393,"NOMBRE":"DEPÓSITO Y FERRETERIA LA RUTA","DIRECCION":"CL 65   90   95","ANEXO_DIR_":"","BARRIO":"","MUNICIPIO":"MEDELLIN","TELEFONO":"4 46 06 17","CATEGORIA":"ALMACENES MATERIALES EN GENERAL"}},
{"type":"Feature","geometry":{"type":"Point","coordinates":[-75.54049462159003,6.232181715065348]},"properties":{"OBJECTID_1":278,"OBJECTID":394,"NOMBRE":"DEPÓSITO Y FERRETERIA LAS MELLIZAS","DIRECCION":"CL 49   11 C   15","ANEXO_DIR_":"","BARRIO":"","MUNICIPIO":"MEDELLIN","TELEFONO":"2 21 10 53","CATEGORIA":"ALMACENES MATERIALES EN GENERAL"}},
{"type":"Feature","geometry":{"type":"Point","coordinates":[-75.5622088399886,6.282929916936377]},"properties":{"OBJECTID_1":279,"OBJECTID":398,"NOMBRE":"DEPÓSITO Y FERRETERIA R.N","DIRECCION":"KR 51 B   91   72","ANEXO_DIR_":"Local 101","BARRIO":"","MUNICIPIO":"MEDELLIN","TELEFONO":"2 36 32 90","CATEGORIA":"ALMACENES MATERIALES EN GENERAL"}},
{"type":"Feature","geometry":{"type":"Point","coordinates":[-75.55542234655418,6.282270291708664]},"properties":{"OBJECTID_1":280,"OBJECTID":401,"NOMBRE":"DEPÓSITO Y MOSAICO EL 93","DIRECCION":"CL 90   47   12","ANEXO_DIR_":"","BARRIO":"","MUNICIPIO":"MEDELLIN","TELEFONO":"2 36 31 64","CATEGORIA":"ALMACENES MATERIALES EN GENERAL"}},
{"type":"Feature","geometry":{"type":"Point","coordinates":[-75.56323824617888,6.2753284794781505]},"properties":{"OBJECTID_1":281,"OBJECTID":402,"NOMBRE":"DEPÓSITO Y TALLERES PINTUHENAO´S","DIRECCION":"CL 81   51 B   12","ANEXO_DIR_":"","BARRIO":"","MUNICIPIO":"MEDELLIN","TELEFONO":"5 71 18 59","CATEGORIA":"ALMACENES MATERIALES EN GENERAL"}},
{"type":"Feature","geometry":{"type":"Point","coordinates":[-75.56761911034566,6.2585063056318795]},"properties":{"OBJECTID_1":282,"OBJECTID":404,"NOMBRE":"DEPÓSITOS MIRANDA","DIRECCION":"KR 52   59   49","ANEXO_DIR_":"","BARRIO":"","MUNICIPIO":"MEDELLIN","TELEFONO":"5 11 58 83","CATEGORIA":"ALMACENES MATERIALES EN GENERAL"}},
{"type":"Feature","geometry":{"type":"Point","coordinates":[-75.57442853698603,6.249802749278387]},"properties":{"OBJECTID_1":283,"OBJECTID":405,"NOMBRE":"DIMATEK","DIRECCION":"CL 48   56   35","ANEXO_DIR_":"","BARRIO":"","MUNICIPIO":"MEDELLIN","TELEFONO":"5 12 07 04","CATEGORIA":"ALMACENES MATERIALES EN GENERAL"}},
{"type":"Feature","geometry":{"type":"Point","coordinates":[-75.59357156466356,6.269443952235492]},"properties":{"OBJECTID_1":284,"OBJECTID":406,"NOMBRE":"DISARENTO","DIRECCION":"CL 56   78 A   54 B 2","ANEXO_DIR_":"Apartamento 203","BARRIO":"","MUNICIPIO":"MEDELLIN","TELEFONO":"2 64 80 19","CATEGORIA":"ALMACENES MATERIALES EN GENERAL"}},
{"type":"Feature","geometry":{"type":"Point","coordinates":[-75.56382796724857,6.281904664940201]},"properties":{"OBJECTID_1":285,"OBJECTID":407,"NOMBRE":"DISBALDOSAS LTDA","DIRECCION":"KR 52   89   71","ANEXO_DIR_":"","BARRIO":"","MUNICIPIO":"MEDELLIN","TELEFONO":"2 63 93 47","CATEGORIA":"ALMACENES MATERIALES EN GENERAL"}},
{"type":"Feature","geometry":{"type":"Point","coordinates":[-75.61250254212541,6.248281370303823]},"properties":{"OBJECTID_1":286,"OBJECTID":408,"NOMBRE":"DISTRIBUCIONES  ARVAL P.V C","DIRECCION":"KR 91   36   10","ANEXO_DIR_":"","BARRIO":"","MUNICIPIO":"MEDELLIN","TELEFONO":"2 53 26 02","CATEGORIA":"ALMACENES MATERIALES EN GENERAL"}},
{"type":"Feature","geometry":{"type":"Point","coordinates":[-75.56108186518696,6.243960072506673]},"properties":{"OBJECTID_1":287,"OBJECTID":409,"NOMBRE":"DISTRIBUCIONES MANUEL HOYOS","DIRECCION":"CL 48   39   102","ANEXO_DIR_":"","BARRIO":"","MUNICIPIO":"MEDELLIN","TELEFONO":"2 39 41 95","CATEGORIA":"ALMACENES MATERIALES EN GENERAL"}},
{"type":"Feature","geometry":{"type":"Point","coordinates":[-75.57100351024664,6.255989188525598]},